FcTime,PowerOnCount,FlightCount,SequenceNumber,FlightTime,BatteryVoltage,AdcVoltage,CoreTemp,SelfCheckStatus,ledState,FaultFlag,ErrHandling,SoftwareVersion,ConfigCount,SimState,ProductType,ModelOnliebit1,ModelOnliebit2,FrameLoss1,FrameLoss2,RTKBit,MSDFBit,PlatBit,FCBit,SensorState,ImuTemp,ImuState,ImuUse,UseGPSState,TempState,SafeState,HeadErrFlag,AccelZAmp,HomeLongitude,HomeLatitude,HomeAltitude,SystemTime,RollControl,PitchControl,YawControl,HeightVelocityContorl,NorthVelocityHandle,EastVelocityHandle,Aileron,Elevator,Throttle,Rudder,Mode,AutoMode,RCState,Reserve2,OutputM1,OutputM2,OutputM3,OutputM4,OutputM5,OutputM6,OutputM7,OutputM8,MortorSpeed1,MortorSpeed2,MortorSpeed3,MortorSpeed4,RollAngle,PitchAngle,YawAngle,HeadingAngle,EstimateHeading,AccelX,AccelY,AccelZ,GyroRoll,GyroPitch,GyroYaw,GroundHeight,VerticalHeight,BaroHeight,BaroVelocity,GPSVelocity,VerticalVelocity,AHRSVelocity,Reserve3,NorthPosition,EastPosition,NorthVelocity,EastVelocity,CurrentLongitude,CurrentLatitude,CurrentHeight,Lon89,Lat89,GPSFix,GPSNumSV,GPSITOW,GPSWeek,GPSDiffAge,RtkDevice,PositionAccuracy,GPSHeadAccuracy,HorVelocityAccuracy,GPSNorthPos,GPSEastPos,GPSPosHead,GPSNorthVelocity,GPSEastVelocity,stationId,MainRev1,MainRev2,msg_id,sub_cmd_id,retval,from_id,rev_timestamp_ms,SystemTimeMsdf,GpsRight1,GpsRight2,GpsRightAltitude,GpsLeft1,GpsLeft2,GpsLeftAltitude,Lon_R89,Lat_R89,Lon_L89,Lat_L89,FusionGpsLoacation1,FusionGpsLoacation2,FusionGpsLoacation3,LngErr,LatErr,AltErr,GpsVelErrFlag,GpsPosErrType,GpsAltErrType,GpsUseIndex,GpsNsv1,GpsNsv2,Fixmode1,Fixmode2,GpsHeadFixmode1,GpsHeadFixmode2,UseGpsVel1,UseGpsVel2,UseGpsVel3,GpsVelAccuracy1,GpsVelAccuracy2,AccEstHead,GyroEstHead,InsEstHead,AccEuler1,AccEuler2,DelayEuler1,DelayEuler2,GpsPos1,GpsPos2,FusionPos1,FusionPos2,GpsVel1,GpsVel2,DelayVel1,DelayVel2,UseGpsState,HorizFusionSource,HorizKalmanNum,GpsValidState,Rev2,Rev3,Rev4,FlowState,FlowHealthyFactor,FlowVel1,FlowVel2,DelayVelFlow1,DelayVelFlow2,EkfEuler1,EkfEuler2,EkfEuler3,EkfVel1,EkfVel2,EkfVel3,EkfPos1,EkfPos2,EkfPos3,WindVelNE1,WindVelNE2,KaccXY1,KaccXY2,VerticalFusionSource,BaroCmpeK,AccOffsetZ,BaroCorrectHeight,GpsHeightForFusion,AhrsDelayHeightBaro,GpsPosDiffVelZ,InteVelNE1,InteVelNE2,VerticalVel_3imu1,VerticalVel_3imu2,UseVerticalVelIndex,UseNavSource,FlySafeState,Acc0_adc1,Acc0_adc2,Acc0_adc3,Acc1_adc1,Acc1_adc2,Acc1_adc3,Acc2_adc1,Acc2_adc2,Acc2_adc3,Acc3_adc1,Acc3_adc2,Acc3_adc3,Gyro0_adc1,Gyro0_adc2,Gyro0_adc3,Gyro3_adc1,Gyro3_adc2,Gyro3_adc3,Imustate1,Imustate2,Imustate3,Imustate4,ImuTemperature1,ImuTemperature2,ImuTemperature3,ImuTemperature4,S3EstVar,AccXamp,AccYamp,AccXamp2,AccYamp2,AccZamp2,BaroTemperature,FftFreq,FftAmp,FftFreq2,FftAmp2,PosFuisonQuality1,PosFuisonQuality2,PosFuisonQuality3,VelFusionQuality1,VelFusionQuality2,VelFusionQuality3,AccZErrInte1,AccZErrInte2,AccZErrInte3,Rev41,f_airX,f_airY,InsLogVersion,SensorInitState,BaroType,SystemTimeTPS,SystemSwitch,Rev1,TpsStatus,MotionStatus,ProjectID1,ProjectID2,ProjectID3,ProjectID4,ProjectID5,ProjectID6,ProjectID7,ProjectID8,ProjectID9,ProjectID10,ProjectID11,ProjectID12,ProjectID13,ProjectID14,ProjectID15,ProjectID16,MissionID1,MissionID2,MissionID3,MissionID4,MissionID5,MissionID6,MissionID7,MissionID8,MissionID9,MissionID10,MissionID11,MissionID12,MissionID13,MissionID14,MissionID15,MissionID16,MotionMode,ListType,Segment,Rev5,WpNum,WpLen,ListWpNum,ListWpRestNum,ListStartIndex,ListEndIndex,RouteStatus,NavStatus,WpIndex,WpStatus,Cmd,CmdStatus,Action,ActionStatus,RobotModeStatus,Error,NavWpIndex,NavCmd,NavWpStatus,NavMode,Rev71,Rev72,Rev73,NavError,Index,WpSegment,Type,Longitude,Latitude,Height,Speed,HeightBehavior,HeightSource,OaMode,RouteHeadType,RouteHeading,Reserved0,LoiterLongitude,LoiterLatitude,LoiterRadius,LoiterDirection,LoiterCircleCount,HoldTime,HoldBehavior,WpHeadType,WpHeading,TargetLongitude,TargetLatitude,TargetHeight,GoHomeCmd,Rev81,Rev82,Rev83,TpsRcHeightSource,TpsRcMode,TpsRcCmd,TpsRcCmdStatus,TpsRcSignalMode,TpsRcSignalStatus,Rev9,TpsRcSignal1,TpsRcSignal2,TpsRcSignal3,TpsRcSignal4,TpsRcSignal5,TpsRcSignal6,TpsRcSignal7,TpsRcSignal8,EventCode1,EventCode2,EventCode3,EventCode4,CurrEvCode,CurrEvcmdSn,CurrEvcmdSta,CurrEvEmergAct,ActiveEvCnt,Maybe_takeover,EvDataU16,Speed1,Speed2,Speed3,Speed4,OutputVolt1,OutputVolt2,OutputVolt3,OutputVolt4,OutputCurr1,OutputCurr2,OutputCurr3,OutputCurr4,CPUTemp1,CPUTemp2,CPUTemp3,CPUTemp4,MosBoardTemp1,MosBoardTemp2,MosBoardTemp3,MosBoardTemp4,XAStatus1,XAStatus2,XAStatus3,XAStatus4,SystemTimeControl,ControlX,ControlY,ControlZ,ControlR,ControlThrottle,VerticalVelocitySp,VerticalVelocity2,YawRateSp,AllStatusFlag,LandState,HeightLockFlag,PointLockFlag,TFFlag,LevelFlag,takeOffFlag,setPointLevelExtern,setPointHeightExtern,MotorState,wp_NorthSetPoint,wp_EastSetPoint,wp_NorthSetVel,wp_EastSetVel,wp_NorthSetAcc,wp_EastSetAcc,wp_VerticalSetPos,wp_VerticalSetVel,wp_VertivalSetAcc,RouteError,HeightSetPoint,TFOut,HoverError,NavUpdateCount,setSource,useSource,FlightUseHeightSource1,Rev101,Rev102,Rev103,XsenseDistance1,RollOut,PitchOut,YawOut,SetGPSPointLevelNorth1,SetGPSPointLevelEast1,Fbxxx1,Fbxxx2,Fbxxx3,Fbxxx4,Fbxxx5,Fbxxx6,Fbxxx7,Fbxxx8,Fbxxx9,Fbxxx10,Fbxxx11,Fbxxx12,SystemTimeFW,AirspeedRaw,AirSpeed,AirspeedRaw1,CaliAirspeed,Servo1,Servo2,Servo3,Servo4,Fw_RollControl,Fw_PitchControl,MCThrottle,FWThrottle,TransStatus,TransToFw,Gnd_ms,Rev11,Power,Soc,Current,AirspeedScale,AutoType,WpState,Beta,Rev12,WindNorthSpeed,WindEastSpeed,Speed5,OutputVolt5,OutputCurr5,CPUTemp5,MosBoardTemp5,XAStatus5,CircleMode,UseLQR,LateralAccel,BearingError,CrossTrackError,TerrainHeightEstimate,TerrainCorrection,TerrainValid,ATT_Error,FwModeFailedCount,VtolFlightMode,RollBodyRateSP,RollBodyRate,RollLastOut,PitchBodyRateSP,PitchBodyRate,PitchLastOut,YawBodyRateSP,YawBodyRate,YawLastOut,RollInt,PitchInt,YawInt,DemRelativeAltitude,DemRelativeAltSP,DemVerticalVelocitySP,AirRev1,AirRev2,Cnt,Monitor1,Monitor2,FaultBit,AngleX,AngleY,AngleZ,DebugTest
123609,118,1,0,0,0,0,0,0,0,0,0,0,0,0,0,0,0,0,0,0,0,0,0,0,0,0,0,0,0,0,0,0,0,0,0,0,0,0,0,0,0,0,0,0,0,0,0,0,0,0,0,0,0,0,0,0,0,0,0,0,0,0,0,0,0,0,0,0,0,0,0,0,0,0,0,0,0,0,0,0,0,0,0,0,0,0,0,0,0,0,0,0,0,0,0,0,0,0,0,0,0,0,0,0,0,0,0,67,1,0,5046272,23724,0,0,0,0,0,0,0,0,0,0,0,0,0,0,0,0,0,0,0,0,0,0,0,0,0,0,0,0,0,0,0,0,0,0,0,0,0,0,0,0,0,0,0,0,0,0,0,0,0,0,0,0,0,0,0,0,0,0,0,0,0,0,0,0,0,0,0,0,0,0,0,0,0,0,0,0,0,0,0,0,0,0,0,0,0,0,0,0,0,0,0,0,0,0,0,0,0,0,0,0,0,0,0,0,0,0,0,0,0,0,0,0,0,0,0,0,0,0,0,0,0,0,0,0,0,0,0,0,0,0,0,0,0,0,0,0,0,0,0,0,0,0,0,0,0,0,0,0,0,0,0,0,0,0,0,0,0,0,0,0,0,0,0,0,0,0,0,0,0,0,0,0,0,0,0,0,0,0,0,0,0,0,0,0,0,0,0,0,0,0,0,0,0,0,0,0,0,0,0,0,0,0,0,0,0,0,0,0,0,0,0,0,0,0,0,0,0,0,0,0,0,0,0,0,0,0,0,0,0,0,0,0,0,0,0,0,0,0,0,0,0,0,0,0,0,0,0,0,0,0,0,0,0,0,0,0,0,0,0,0,0,0,0,0,0,0,0,0,0,0,0,0,0,0,0,0,0,0,0,0,0,0,0,0,0,0,0,0,0,0,0,0,0,0,0,0,0,0,0,0,0,0,0,0,0,0,0,0,0,0,0,0,0,0,0,0,0,0,0,0,0,0,0,0,0,0,0,0,0,0,0,0,0,0,0,0,0,0,0,0,0,0,0,0,0,0,0,0,0,0,0,0,0,0,0,0,0,0,0,0,0,0,0,0,0,0,0,0,0,0,0,0,0,0,0,0,0,0,0,0,0,0,0,0,0,0,0,0,0,0,0,0,0,0,0,0,0,0,0,0,0,0,0,0,0,0,0,0,0
124038,118,1,1,0,251,249,51,0,10,0,1,0,0,0,1,4214842,0,0,0,11448,0,0,0,4,500,0,211,6,1,1,13,46,1078685046,375778100,1358924,124037,0,0,-15,0,0,0,0,0,0,0,4,2,0,0,1190,1190,1190,1190,1000,0,73,0,0,0,0,0,0,10,-155,-155,0,19,-1,-1004,3,1,2,73,-0.1193292,0,0,0,0,-25,0,0.8308861,-0.4326624,0,0,1078684997,375778174,0,0,0,6,30,365280200,2319,1,3,0,5,29,0.73392,-0.4053861,-1498,0,0,3471,0,0,67,7,0,4390912,106276,0,0,0,0,0,0,0,0,0,0,0,0,0,0,0,0,0,0,0,0,0,0,0,0,0,0,0,0,0,0,0,0,0,0,0,0,0,0,0,0,0,0,0,0,0,0,0,0,0,0,0,0,0,0,0,0,0,0,0,0,0,0,0,0,0,0,0,0,0,0,0,0,0,0,0,0,0,0,0,0,0,0,0,0,0,0,0,0,0,0,0,0,0,0,0,0,0,0,0,0,0,0,0,0,0,0,0,0,0,0,0,0,0,0,0,0,0,0,0,0,0,0,0,0,0,0,0,0,0,0,0,0,0,0,0,0,0,0,0,2266925408,1,2,1,0,0,0,0,0,0,0,0,0,0,0,0,0,0,0,0,0,0,0,0,0,0,0,0,0,0,0,0,0,0,0,0,0,0,0,0,0,0,0,0,19,0,0,1,0,0,1,1,1,1,2,0,0,0,0,0,0,8,0,0,0,0,0,0,0,0,0,0,0,0,0,0,0,0,0,0,0,0,0,0,0,0,2,0,0,0,0,0,0,0,2,0,0,0,0,0,0,0,0,0,0,0,0,0,0,1000,0,0,0,1000,2,0,1,1,0,2057,0,0,0,0,4542,4536,4553,4551,0,0,0,0,4864,4753,4801,4889,4864,4753,4801,4889,1,1,1,1,124005,0,0,0,0,0,0,0,0,0,0,0,0,1,0,1,0,0,1,0,0,0,0,0,0,0,0,0,0,0,0,0,0,0,0,0,0,0,0,0,0,0,0,0,0,0,0,0,0,0,0,2,0,0,0,0,0,124005,287,248,-1370,248,1580,1480,1600,1600,0,0,0,0,0,0,0,0,23,874,935,0,0,2,0,0,0,0,0,0,0,4172,4171,1,0,0,0,0,0,73,0,1,0,0,0,-39,3000,0,-456,3000,0,0,3000,0,0,0,0,0,74,0,0,0,0,0,0,0,0,0,0,0
124538,118,1,2,0,251,246,51,0,10,0,1,0,0,0,1,4214842,0,0,0,11448,0,0,0,4,500,0,211,6,1,1,13,54,1078685046,375778100,1358924,124537,0,0,-15,0,0,0,0,0,0,0,4,2,0,0,1190,1190,1190,1190,1000,0,75,0,260,276,322,464,0,10,-155,-153,0,18,-2,-1003,3,2,2,75,-0.1245427,0,-3,4,1,-25,0,0.8297219,-0.4323047,0,0,1078684997,375778174,0,0,1,6,30,365281200,2319,2,3,0,5,29,0.73392,-0.4053861,-1498,-2,0,3471,0,0,6,1,0,4390912,121068,0,0,0,0,0,0,0,0,0,0,0,0,0,0,0,0,0,0,0,0,0,0,0,0,0,0,0,0,0,0,0,0,0,0,0,0,0,0,0,0,0,0,0,0,0,0,0,0,0,0,0,0,0,0,0,0,0,0,0,0,0,0,0,0,0,0,0,0,0,0,0,0,0,0,0,0,0,0,0,0,0,0,0,0,0,0,0,0,0,0,0,0,0,0,0,0,0,0,0,0,0,0,0,0,0,0,0,0,0,0,0,0,0,0,0,0,0,0,0,0,0,0,0,0,0,0,0,0,0,0,0,0,0,0,0,0,0,0,0,2266925408,1,2,1,0,0,0,0,0,0,0,0,0,0,0,0,0,0,0,0,0,0,0,0,0,0,0,0,0,0,0,0,0,0,0,0,0,0,0,0,0,0,0,0,19,0,0,1,0,0,1,1,1,1,2,0,0,0,0,0,0,18,0,0,0,0,0,0,0,0,0,0,0,0,0,0,0,0,0,0,0,0,0,0,0,0,2,0,0,0,0,0,0,0,2,0,0,0,0,0,0,0,0,0,0,0,0,0,0,1000,0,0,0,1000,2,0,1,1,0,2057,32,276,322,260,4543,4536,4554,4549,185,179,246,228,4855,4756,4769,4883,4855,4757,4770,4883,1,1,1,1,124506,0,0,0,0,0,0,1,0,0,0,0,0,1,0,1,0,0,1,0,0,0,0,0,0,0,0,0,0,0,0,0,0,0,0,0,0,0,0,0,0,0,0,0,0,0,0,0,0,0,0,2,0,0,0,0,0,124505,243,210,-1443,210,1580,1480,1600,1600,0,0,0,0,0,0,0,0,26,874,1043,0,0,2,0,0,0,0,0,0,0,4169,4169,1,0,0,0,0,0,74,0,1,0,0,0,-36,10000,0,-459,10000,0,0,10000,0,0,0,0,0,75,0,0,0,0,0,0,0,0,0,0,0
125038,118,1,3,0,251,248,52,0,10,0,1,0,0,0,1,4214842,0,0,0,11449,0,0,0,4,500,0,211,6,1,1,13,484,1078685046,375778100,1358924,125037,0,0,-15,0,0,0,0,0,0,0,4,2,0,0,1190,1190,1190,1190,1000,0,70,0,2220,2248,2196,2214,0,10,-155,-159,0,19,-1,-1005,4,1,2,70,-0.1207727,3,59,0,1,-25,0,0.8276554,-0.4316311,0,0,1078684998,375778174,0,0,1,6,30,365281600,2319,1,3,0,5,29,0.73392,-0.4053861,-1498,0,0,3471,0,0,0,0,0,0,0,0,0,0,0,0,0,0,0,0,0,0,0,0,0,0,0,0,0,0,0,0,0,0,0,0,0,0,0,0,0,0,0,0,0,0,0,0,0,0,0,0,0,0,0,0,0,0,0,0,0,0,0,0,0,0,0,0,0,0,0,0,0,0,0,0,0,0,0,0,0,0,0,0,0,0,0,0,0,0,0,0,0,0,0,0,0,0,0,0,0,0,0,0,0,0,0,0,0,0,0,0,0,0,0,0,0,0,0,0,0,0,0,0,0,0,0,0,0,0,0,0,0,0,0,0,0,0,0,0,0,0,0,0,0,0,0,0,0,0,2266925408,1,2,1,0,0,0,0,0,0,0,0,0,0,0,0,0,0,0,0,0,0,0,0,0,0,0,0,0,0,0,0,0,0,0,0,0,0,0,0,0,0,0,0,19,0,0,1,0,0,1,1,1,1,2,0,0,0,0,0,0,27,0,0,0,0,0,0,0,0,0,0,0,0,0,0,0,0,0,0,0,0,0,0,0,0,2,0,0,0,0,0,0,0,2,0,0,0,0,0,0,0,0,0,0,0,0,0,0,1000,0,0,0,1000,2,0,1,1,0,2057,2210,2248,2196,2220,4543,4536,4553,4549,77,45,84,88,4868,4774,4778,4879,4867,4773,4780,4879,1,1,1,1,125005,0,0,0,0,0,0,1,0,0,0,0,0,1,0,1,0,0,2,0,0,0,0,0,0,0,0,0,0,0,0,0,0,0,0,0,0,0,0,0,0,0,0,0,0,0,0,0,0,0,0,2,0,0,0,0,0,125005,120,103,-1579,103,1580,1480,1600,1600,0,0,0,0,0,0,0,0,52,874,2104,0,0,2,0,0,0,0,0,0,0,4178,4178,1,0,0,0,0,0,71,0,1,0,0,0,-41,3000,0,-462,3000,0,0,3000,0,0,0,0,0,72,0,0,0,0,0,0,0,0,0,0,0
125538,118,1,4,0,251,249,52,0,10,0,1,0,0,0,1,4214842,0,0,0,11449,0,0,0,4,500,0,211,6,1,1,13,429,1078685046,375778100,1358924,125538,0,0,-15,0,0,0,0,0,0,0,4,2,0,0,1190,1190,1190,1190,1000,0,72,0,2238,2252,2208,2216,0,10,-155,-154,0,18,-1,-1002,3,1,2,72,-0.1193721,4,20,0,1,-25,0,0.8281862,-0.433298,0,0,1078684997,375778174,0,0,0,6,30,365282200,2319,2,3,0,5,29,0.73392,-0.4053861,-1498,-1,0,3471,0,0,0,0,0,0,0,0,0,0,0,0,0,0,0,0,0,0,0,0,0,0,0,0,0,0,0,0,0,0,0,0,0,0,0,0,0,0,0,0,0,0,0,0,0,0,0,0,0,0,0,0,0,0,0,0,0,0,0,0,0,0,0,0,0,0,0,0,0,0,0,0,0,0,0,0,0,0,0,0,0,0,0,0,0,0,0,0,0,0,0,0,0,0,0,0,0,0,0,0,0,0,0,0,0,0,0,0,0,0,0,0,0,0,0,0,0,0,0,0,0,0,0,0,0,0,0,0,0,0,0,0,0,0,0,0,0,0,0,0,0,0,0,0,0,0,2266925408,1,2,1,0,0,0,0,0,0,0,0,0,0,0,0,0,0,0,0,0,0,0,0,0,0,0,0,0,0,0,0,0,0,0,0,0,0,0,0,0,0,0,0,19,0,0,1,0,0,1,1,1,1,2,0,0,0,0,0,0,37,0,0,0,0,0,0,0,0,0,0,0,0,0,0,0,0,0,0,0,0,0,0,0,0,2,0,0,0,0,0,0,0,2,0,0,0,0,0,0,0,0,0,0,0,0,0,0,1000,0,0,0,1000,2,0,1,1,0,2057,2218,2250,2208,2238,4543,4536,4553,4549,86,87,129,63,4881,4783,4791,4882,4881,4783,4791,4883,1,1,1,1,125505,0,0,0,0,0,0,1,0,0,0,0,0,1,0,1,0,0,2,0,0,0,0,0,0,0,0,0,0,0,0,0,0,0,0,0,0,0,0,0,0,0,0,0,0,0,0,0,0,0,0,2,0,0,0,0,0,125505,0,0,-1844,0,1580,1480,1600,1600,0,0,0,0,0,0,0,0,50,874,2014,0,0,2,0,0,0,0,0,0,0,4169,4168,1,0,0,0,0,0,70,0,1,0,0,0,-39,3000,0,-460,3000,0,0,3000,0,0,0,0,0,71,0,0,0,0,0,0,0,0,0,0,0
126038,118,1,5,428,251,249,52,0,10,0,1,0,0,0,1,4214842,0,0,0,11448,0,0,0,4,500,0,211,6,1,1,13,468,1078684997,375778174,1359045,126038,0.05,-0.35,-15,0,0,0,0,0,0,0,4,2,0,0,1190,1190,1190,1190,1000,0,70,0,2234,2262,2204,2220,0,10,-155,-155,-66,18,-1,-1003,3,1,2,70,-0.1203145,5,1,0,0,-25,0,0.8283085,-0.4398693,0,0,1078684997,375778174,-0.002,0,1,6,30,365282600,2319,1,3,0,5,29,0.73392,-0.4141989,-1520,0,0,3471,0,0,0,0,0,0,0,126000,375778161,1078685036,1359051,375778147,1078684971,1359025,0,40,51,12,375778169,1078685033,1359047,0,0,0,0,0,0,0,30,30,6,6,6,1,0,0,0,29,29,-153,-153,-153,15,99,8,105,0.73392,-0.4141989,0.7321918,-0.4128433,0,0,0,0,6,3,201,1,-2027,0,0,1,20,0,0,0,0,120,14,-1557,6,4,0,0.8365682,-0.4268275,-0.1205666,3,0,0,100,7,1,334,26,-12,-12,1,-0.1292725,1359051,0,0,0,1,0,0,0,0,0,0,0,0,0,0,0,0,0,0,0,0,0,0,0,0,0,0,0,0,0,0,0,0,0,0,0,0,0,0,0,0,0,0,0,0,0,0,0,0,0,0,0,0,0,0,0,0,0,2266925408,1,3,1,0,0,0,0,0,0,0,0,0,0,0,0,0,0,0,0,0,0,0,0,0,0,0,0,0,0,0,0,0,0,0,0,0,0,0,0,1,0,0,0,19,0,0,1,0,0,1,1,1,1,2,0,0,0,0,0,0,47,0,0,0,0,0,0,0,0,0,0,0,0,0,0,0,0,0,0,0,0,0,0,0,0,2,0,0,0,0,0,0,0,2,0,0,0,0,0,0,0,0,0,0,0,0,0,0,1000,0,0,0,1000,2,0,1,1,0,2057,2220,2256,2206,2234,4543,4536,4554,4550,109,60,108,69,4886,4777,4792,4890,4888,4777,4791,4889,1,1,1,1,126006,0,0,0,0,15,0,0,0,0,0,0,1,1,0,1,0,0,2,0,0,0,0,0,0,0,0,0,0,0,0,0,0,0,0,1,0,0,0,0,0,0,0,82.79075,-43.74486,0,0,0,0,0,0,2,0,0,0,0,0,126006,0,0,-2027,0,1580,1480,1600,1600,0,0,15,0,0,0,0,0,49,874,1960,0,0,3,0,0,0,0,0,0,0,4179,4181,1,0,0,0,0,0,69,0,1,0,0,0,-38,-3500,0,-456,-3500,0,0,-3500,0,0,0,0,0,70,0,0,0,0,0,0,0,0,0,0,0
126538,118,1,6,928,251,247,52,0,10,0,1,0,0,0,1,4214842,0,0,0,11448,0,0,0,4,500,0,211,6,1,1,13,492,1078684997,375778174,1359045,126538,-0.002311307,-0.3711704,-15,0,0,0,0,0,0,0,4,2,0,0,1324,1324,1344,1345,1000,0,63,0,3994,3500,3974,3398,0,10,-155,-156,630,18,-3,-1002,3,1,2,63,-0.1256535,7,40,0,0,-25,0,0.8289688,-0.4368248,0,0,1078684997,375778174,-0.008,0,1,6,30,365283200,2319,1,3,0,5,29,0.73392,-0.4053861,-1498,-1,0,3471,0,0,0,0,0,0,0,126500,375778161,1078685037,1359057,375778147,1078684971,1359025,0,44,55,12,375778169,1078685033,1359052,0,0,0,0,0,0,0,30,30,6,6,6,1,-1,0,0,29,29,-153,-153,-153,9,121,8,105,0.73392,-0.4053861,0.733051,-0.4100361,0,0,0,0,6,3,201,1,-2185,0,0,1,20,0,0,0,0,131,28,-1559,9,8,-1,0.8449934,-0.4184669,-0.1256988,4,0,0,100,7,1,330,51,-13,-12,-4,-0.1352539,1359057,0,0,0,1,0,32775,32769,32910,32741,32825,33767,32734,32808,33769,32740,32833,33762,32765,32774,32769,32765,32760,32771,100,100,100,100,49,52,51,51,373,0,0,0,0,0,48,69,1,69,1,0,0,0,0,12,-4,0,1,0,14649,0,0,2385,0,131,2266925408,1,3,1,0,0,0,0,0,0,0,0,0,0,0,0,0,0,0,0,0,0,0,0,0,0,0,0,0,0,0,0,0,0,0,0,0,0,0,0,1,0,0,0,19,0,0,1,0,0,1,1,1,1,2,0,0,0,0,0,0,56,0,0,0,0,0,0,0,0,0,0,0,0,0,0,0,0,0,0,0,0,0,0,0,0,2,0,0,0,0,0,0,0,2,0,0,0,0,0,0,0,0,0,0,0,0,0,0,1000,0,0,0,1000,2,0,1,1,0,2057,3398,3108,3552,3584,4542,4535,4554,4549,436,333,418,432,4893,4777,4797,4896,4895,4776,4797,4895,1,1,1,1,126506,0,0,0,0,32,-2,0,1,0,0,0,1,1,0,1,0,0,2,0,0,0,0,0,0,0,0,0,0,-150,0,0,0,0,0,1,0,0,0,0,0,0,0,82.79075,-43.74486,0,0,0,0,0,0,2,0,0,0,0,0,126506,0,0,-2185,0,1580,1480,1600,1600,0,0,32,0,0,0,0,0,80,874,3201,0,0,3,0,0,0,0,0,0,0,4175,4175,1,0,0,0,0,0,65,0,1,0,0,0,-37,3000,0,-449,3000,0,0,3000,0,0,0,0,0,66,0,0,0,0,0,0,0,0,0,0,0
127038,118,1,7,1428,249,243,52,0,10,0,1,0,0,0,1,4214842,0,0,0,11447,0,0,0,4,499,0,211,6,1,1,13,2156,1078684997,375778174,1359045,127038,0.0999341,0.9620181,-15,0,0,0,0,0,0,0,4,2,0,0,1508,1546,1494,1468,1000,0,73,0,6226,7422,6246,7284,-3,-28,-155,-156,1476,18,3,-1002,3,0,3,73,-0.1520855,24,355,2,-19,-46,0,0.8347295,-0.4418209,2,-1,1078684997,375778174,-0.009000001,0,1,6,30,365283600,2319,1,3,0,5,29,0.73392,-0.4141989,-1520,0,0,3471,0,0,0,0,0,0,0,127001,375778161,1078685036,1359057,375778147,1078684971,1359029,0,0,12,24,375778169,1078685032,1359065,0,0,0,0,0,0,0,30,30,6,6,6,1,0,0,0,29,29,-153,-153,-153,21,92,8,101,0.73392,-0.4141989,0.7363874,-0.4140565,0,0,3,0,6,3,201,1,-3043,2,-10,1,20,0,0,0,0,112,-339,-1557,20,11,-18,0.87413,-0.3996286,-0.1457027,11,0,1,100,7,1,342,218,-13,-12,0,-0.1342773,1359057,0,0,0,1,0,32707,32812,32957,32888,32861,33713,32873,32852,33741,32864,32851,33689,32756,32762,32768,32740,32789,32769,100,100,100,100,49,52,51,51,360,0,0,0,0,0,48,69,1,69,1,0,0,0,0,12,-20,0,1,0,15677,0,0,2385,0,131,2266925408,1,3,1,0,0,0,0,0,0,0,0,0,0,0,0,0,0,0,0,0,0,0,0,0,0,0,0,0,0,0,0,0,0,0,0,0,0,0,0,1,0,0,0,19,0,0,1,0,0,1,1,1,1,2,0,0,0,0,0,0,66,0,0,0,0,0,0,0,0,0,0,0,0,0,0,0,0,0,0,0,0,0,0,0,0,2,0,0,0,0,0,0,0,2,0,0,0,0,0,0,0,0,0,0,0,0,0,0,1000,0,0,0,1000,2,0,1,1,0,2057,6394,6486,6246,6226,4542,4535,4554,4549,521,1083,452,1277,4876,4783,4802,4883,4876,4781,4804,4883,1,1,1,1,127006,0,0,0,0,50,-19,-16,1,0,0,0,1,1,0,1,0,0,2,0,0,0,0,0,0,0,0,0,0,-150,0,0,0,0,0,1,0,0,0,0,0,0,0,82.79075,-43.74486,0,0,0,0,0,0,2,0,0,0,0,0,127006,0,0,-3043,0,1580,1480,1600,1600,0,0,50,0,0,0,2,0,337,874,13543,0,0,3,0,0,0,0,0,0,0,4185,4185,1,0,0,0,0,0,72,0,1,0,0,0,84,0,0,1235,0,0,4,0,0,0,0,0,0,73,0,0,0,0,0,0,0,0,0,0,0
127538,118,1,8,1928,248,242,52,0,10,0,1,0,0,0,1,4214842,0,0,0,11449,4,0,0,4,499,0,211,6,1,1,13,2273,1078684997,375778174,1359045,127538,2.476847,2.932395,-15,0,0,0,0,0,0,0,4,2,0,0,1564,1529,1504,1475,1000,0,77,0,6472,7860,6914,7304,9,-18,-159,-153,-87,-35,-20,-1159,-15,-61,14,77,-0.3213647,11,-241,-29,-32,-55,0,0.8611444,-0.4966204,7,-16,1078684990,375778177,-0.19,0,4,6,30,365284200,2319,1,3,0,5,29,0.75616,-0.4582626,-1416,10,-14,3471,0,0,0,0,0,0,0,127500,375778163,1078685031,1359229,375778150,1078684966,1359183,0,40,52,15,375778172,1078685027,1359228,0,0,0,0,0,0,0,30,30,6,6,6,1,12,-14,-24,29,29,-155,-155,-155,-79,-216,-35,-272,0.75616,-0.4582626,0.7599559,-0.45907,10,-13,8,-16,6,3,201,1,-3874,-29,-30,1,20,0,0,0,0,180,-220,-1575,22,-2,-33,0.899306,-0.4465234,-0.3097403,-39,1,-32,100,7,1,297,104,-29,-21,-21,-0.2978516,1359229,0,0,0,1,0,32769,32799,32809,32805,32627,33919,32767,32649,33969,32799,32629,33873,32622,32758,32754,32641,32732,32755,100,100,100,100,49,52,51,51,364,1,0,0,0,0,48,69,1,69,1,0,0,0,0,12,-779,0,2,-1,14649,0,0,2385,0,131,2266925408,1,3,1,0,0,0,0,0,0,0,0,0,0,0,0,0,0,0,0,0,0,0,0,0,0,0,0,0,0,0,0,0,0,0,0,0,0,0,0,1,0,0,0,19,0,0,1,0,0,1,1,1,1,2,0,0,0,0,0,0,75,0,0,0,0,0,0,0,0,0,0,0,0,0,0,0,0,0,0,0,0,0,0,0,0,2,0,0,0,0,0,0,0,2,0,0,0,0,0,0,0,0,0,0,0,0,0,0,1000,0,0,0,1000,2,0,1,1,0,2057,7158,7860,6914,6472,4543,4535,4553,4549,651,791,1237,984,4868,4769,4794,4881,4867,4767,4794,4879,1,1,1,1,127506,0,0,0,0,51,-41,-31,6,0,0,0,1,1,0,1,0,0,2,0,0,0,0,0,0,0,0,0,0,-150,0,6,0,0,0,1,0,0,0,0,0,0,0,82.79075,-43.74486,0,0,0,0,0,0,2,0,0,0,0,0,127506,0,0,-3861,0,1580,1480,1600,1600,0,0,51,0,0,0,17,0,558,874,22535,0,0,3,0,0,0,0,0,-13,0,4181,4181,1,0,0,0,0,0,76,0,1,0,0,0,-264,3000,0,840,3000,0,-8,3000,0,0,0,0,19,77,0,0,0,0,0,0,0,0,0,0,0
128038,118,1,9,2428,247,242,52,0,10,0,1,0,0,0,1,4214842,0,0,0,11450,4,0,0,4,499,0,211,6,1,1,13,1968,1078684997,375778174,1359045,128038,1.493532,3.437117,-15,0,0,0,0,0,0,0,4,2,0,0,1540,1574,1496,1487,1000,0,82,0,6998,8316,7068,7818,7,1,-153,-159,-170,-29,-10,-1073,164,77,-10,82,-0.5548455,0,-219,-57,-61,-88,0,0.9132558,-0.5460054,9,-5,1078684985,375778181,-0.301,0,7,6,30,365284600,2319,1,3,0,5,29,0.80064,-0.511139,-1520,10,-9,3471,0,0,0,0,0,0,0,128000,375778167,1078685025,1359357,375778153,1078684960,1359347,0,43,55,13,375778176,1078685021,1359460,0,0,0,0,0,0,0,30,30,6,6,6,1,9,-10,-64,29,29,-151,-151,-151,116,-183,144,-164,0.80064,-0.511139,0.8117018,-0.5164431,10,-9,10,-4,6,3,201,1,-3365,-57,-58,1,20,0,0,0,0,204,-11,-1534,21,13,-62,0.961686,-0.4758059,-0.5328754,-8,3,-31,100,7,1,340,-4,-44,-38,-45,-0.4425049,1359357,0,0,0,1,0,32820,32581,32913,32778,32976,33910,32795,32895,33859,32774,32954,33876,32862,32514,32768,32777,32550,32769,100,100,100,100,49,52,51,51,337,3,2,0,0,0,48,69,1,69,1,0,0,0,0,12,47,0,2,0,15677,0,0,2385,0,131,2266925408,1,3,1,0,0,0,0,0,0,0,0,0,0,0,0,0,0,0,0,0,0,0,0,0,0,0,0,0,0,0,0,0,0,0,0,0,0,0,0,1,0,0,0,19,0,0,1,0,0,1,1,1,1,2,0,0,0,0,0,0,85,0,0,0,0,0,0,0,0,0,0,0,0,0,0,0,0,0,0,0,0,0,0,0,0,2,0,0,0,0,0,0,0,2,0,0,0,0,0,0,0,0,0,0,0,0,0,0,1000,0,0,0,1000,2,0,1,1,0,2057,7818,8316,7266,7048,4542,4535,4554,4549,794,1050,501,1245,4865,4767,4756,4892,4862,4767,4755,4890,1,1,1,1,128006,0,0,0,0,52,-65,-60,-6,0,0,0,1,1,0,1,0,0,2,0,0,0,0,0,0,0,0,0,0,-150,0,13,0,0,0,1,0,0,0,0,0,0,0,82.79075,-43.74486,0,0,0,0,0,0,2,0,0,0,0,0,128006,0,0,-3415,0,1580,1480,1600,1600,0,0,52,0,0,0,11,0,597,873,24208,0,0,3,0,0,0,0,0,-2,0,4188,4186,1,0,0,0,0,0,79,0,1,0,0,0,-373,3000,0,-22,3000,0,0,3000,0,0,0,0,30,80,0,0,0,0,0,0,0,0,0,0,0
128538,118,1,10,2928,246,241,52,0,10,0,1,0,0,0,1,4214842,0,0,0,11450,4,0,0,4,498,0,211,6,1,1,13,2867,1078684997,375778174,1359045,128538,1.207088,2.615307,-15,0,0,0,0,0,0,0,4,2,0,0,1550,1577,1496,1510,1000,0,88,0,7600,8374,6766,8164,14,-7,-145,-146,-180,-33,-29,-1034,29,-47,19,88,-0.9099775,-8,-210,-65,-85,-114,0,0.9390147,-0.5578491,-1,1,1078684983,375778184,-0.689,0,6,6,28,365285200,2319,2,3,0,5,30,0.84512,-0.5375773,-1416,-2,-5,3471,0,0,0,0,0,0,0,128501,375778170,1078685022,1359743,375778157,1078684957,1359739,0,37,48,12,375778178,1078685019,1359811,0,0,0,0,0,0,0,28,29,6,6,6,1,-4,-6,-68,30,28,-141,-141,-141,172,14,100,-23,0.84512,-0.5375773,0.8440934,-0.5337441,-2,-5,-1,0,6,3,201,1,-2035,-65,-79,1,20,0,0,0,0,270,-67,-1450,5,19,-85,0.9714966,-0.5061845,-0.879791,-14,3,-60,100,7,1,368,-105,-82,-67,-70,-0.8270264,1359743,0,0,0,1,0,32799,32728,32861,32692,32835,33847,32675,32813,33831,32685,32841,33796,32673,32699,32737,32657,32749,32737,100,100,100,100,49,51,51,51,311,2,2,0,0,0,48,78,4,79,3,0,0,0,0,12,-647,15,10,16,14649,0,0,2385,0,131,2266925408,1,3,1,0,0,0,0,0,0,0,0,0,0,0,0,0,0,0,0,0,0,0,0,0,0,0,0,0,0,0,0,0,0,0,0,0,0,0,0,1,0,0,0,19,0,0,1,0,0,1,1,1,1,2,0,0,0,0,0,0,95,0,0,0,0,0,0,0,0,0,0,0,0,0,0,0,0,0,0,0,0,0,0,0,0,2,0,0,0,0,0,0,0,2,0,0,0,0,0,0,0,0,0,0,0,0,0,0,1000,0,0,0,1000,2,0,1,1,0,2057,8182,8364,6766,7600,4543,4535,4553,4550,953,1203,730,1298,4868,4752,4722,4847,4868,4753,4722,4847,1,1,1,1,128506,0,0,0,0,53,-86,-83,-31,0,0,0,1,1,0,1,0,0,2,0,0,0,0,0,0,0,0,0,0,-150,0,16,0,0,0,1,0,0,0,0,0,0,0,82.79075,-43.74486,0,0,0,0,0,0,2,0,0,0,0,0,128506,0,0,-2035,0,1580,1480,1600,1600,0,0,53,0,0,0,1,0,620,873,25215,0,0,3,0,0,0,0,0,0,0,4169,4169,1,0,0,0,0,0,86,0,1,0,0,0,-695,3000,0,303,3000,0,-8,3000,0,0,0,0,68,87,0,0,0,0,0,0,0,0,0,0,0
129038,118,1,11,3428,246,242,52,0,10,0,1,0,0,0,1,4214842,0,0,0,11451,4,0,0,4,499,0,211,6,1,1,13,2859,1078684997,375778174,1359045,129038,0.02468366,0.4363419,-15,0,0,0,0,0,0,0,4,2,0,0,1536,1563,1490,1505,1000,0,141,0,7236,7778,6986,7702,1,-12,-148,-149,-155,-42,-4,-1055,-12,15,-9,141,-1.374273,-14,-113,-91,-92,-120,0,0.8954095,-0.5109013,-12,13,1078684987,375778181,-1.074,0,3,6,30,365285600,2319,1,3,0,5,30,0.82288,-0.511139,-1520,-8,9,3471,0,0,0,0,0,0,0,129000,375778168,1078685025,1360123,375778154,1078684960,1360118,0,44,56,13,375778174,1078685024,1360265,0,0,0,0,0,0,0,30,30,6,6,6,1,-8,10,-92,30,28,-212,-144,-212,149,-78,144,-63,0.82288,-0.511139,0.8067898,-0.4941293,-7,10,-11,14,6,3,201,1,-1208,-91,-91,1,20,0,0,0,0,140,-99,-1484,-6,34,-96,0.9443176,-0.4422853,-1.34139,-122,0,-90,100,7,2,351,-160,-120,-107,-99,-1.201904,1360123,0,0,0,1,0,32756,32759,32908,32749,32851,33827,32717,32833,33874,32735,32854,33822,32809,32776,32796,32799,32745,32803,100,100,100,100,49,51,51,51,313,1,2,0,0,0,48,78,4,79,3,0,0,0,0,12,-186,22,18,21,15677,0,0,2385,0,131,2266925408,1,3,1,0,0,0,0,0,0,0,0,0,0,0,0,0,0,0,0,0,0,0,0,0,0,0,0,0,0,0,0,0,0,0,0,0,0,0,0,1,0,0,0,19,0,0,1,0,0,1,1,1,1,2,0,0,0,0,0,0,104,0,0,0,0,0,0,0,0,0,0,0,0,0,0,0,0,0,0,0,0,0,0,0,0,2,0,0,0,0,0,0,0,2,0,0,0,0,0,0,0,0,0,0,0,0,0,0,1000,0,0,0,1000,2,0,1,1,0,2057,7530,7778,6986,7236,4542,4535,4554,4549,781,1054,824,1240,4868,4767,4717,4839,4867,4767,4715,4837,1,1,1,1,129006,0,0,0,0,52,-91,-91,-21,0,0,0,1,1,0,2,0,0,2,0,0,0,0,0,0,0,0,0,0,-150,0,10,0,0,0,3,0,0,0,0,0,0,0,82.79075,-43.74486,0,0,0,0,0,0,2,0,0,0,0,0,129006,364,315,-1208,315,1580,1480,1600,1600,0,0,52,0,0,0,17,0,675,872,27446,0,0,3,0,0,0,0,0,9,0,4175,4175,1,0,0,0,0,0,140,0,1,0,0,0,-104,3000,0,501,3000,0,-2,3000,0,0,0,0,141,141,600,0,2,0,0,0,0,0,0,0,0
129538,118,1,12,3928,246,242,52,0,10,0,1,0,0,0,1,4214842,0,0,0,11451,4,0,0,4,499,0,211,6,1,1,13,2468,1078684997,375778174,1359045,129538,-1.140419,-1.490853,-15,0,0,0,0,0,0,0,4,2,0,0,1514,1531,1474,1488,1000,0,189,0,7040,7754,6802,7448,-9,-28,-147,-148,-135,-32,1,-1011,-9,-35,8,189,-1.822358,-16,-52,-87,-80,-107,0,0.8055431,-0.4171772,-16,18,1078684999,375778172,-1.659,0,3,6,30,365286200,2319,1,3,0,5,29,0.7228,-0.4053861,-1311,-17,20,3471,0,0,0,0,0,0,0,129500,375778159,1078685037,1360695,375778147,1078684972,1360653,0,41,52,12,375778166,1078685034,1360706,0,0,0,0,0,0,0,30,30,6,6,6,1,-17,20,-91,29,28,-177,-143,-177,2,-96,16,-129,0.7228,-0.4053861,0.7188714,-0.403023,-16,20,-16,19,6,3,201,1,-960,-87,-84,1,20,0,0,0,0,26,-252,-1474,-11,35,-86,0.8437756,-0.3725486,-1.793203,-107,-2,-93,100,7,4,341,-187,-176,-154,-92,-1.76062,1360695,0,0,0,1,0,32736,32909,33021,32824,32490,33678,32830,32513,33640,32790,32498,33704,32707,32772,32760,32757,32762,32764,100,100,100,100,49,52,51,51,257,2,2,0,0,0,48,78,4,79,3,0,0,0,0,12,-107,30,24,29,15677,0,0,2385,0,131,2266925408,1,9,1,0,0,0,0,0,0,0,0,0,0,0,0,0,0,0,0,0,0,0,0,0,0,0,0,0,0,0,0,0,0,0,0,0,0,0,0,1,0,0,0,19,0,0,5,0,0,1,1,1,1,2,0,0,0,0,0,0,114,0,0,0,0,0,0,0,0,0,0,0,0,0,0,0,0,0,0,0,0,0,0,0,0,2,0,0,0,0,0,0,0,2,0,0,0,0,0,0,0,0,0,0,0,0,0,0,1000,0,0,0,1000,2,0,1,1,0,2057,7448,7754,6782,7150,4542,4535,4554,4551,860,1027,781,1020,4864,4756,4714,4848,4864,4755,4714,4848,1,1,1,1,129506,0,0,0,0,50,-75,-82,-23,0,0,0,1,1,0,3,0,0,2,0,0,0,0,0,0,0,0,0,0,-150,0,2,0,0,0,3,0,0,0,0,0,0,0,82.79075,-43.74486,0,0,0,0,0,0,2,0,0,0,0,0,129506,458,396,-960,396,1580,1480,1600,1600,0,0,50,0,0,0,25,0,627,872,25503,0,0,9,0,0,0,0,0,13,0,4169,4168,1,0,0,0,0,0,186,-22,1,0,0,0,383,3000,0,1209,3000,0,18,3000,0,0,0,0,195,187,600,0,2,0,0,0,0,0,0,0,0
130038,118,1,13,4428,246,242,52,0,10,0,1,0,0,0,1,4214842,0,0,0,11452,4,0,0,4,499,0,211,6,1,1,13,2335,1078684997,375778174,1359045,130038,-1.2223,-1.054265,-15,0,0,0,0,0,0,0,4,2,0,0,1531,1544,1472,1488,1000,0,227,0,6806,7922,6802,7358,-15,-36,-148,-149,-141,-29,8,-950,-14,-27,-2,227,-2.170973,-20,-57,-73,-58,-83,0,0.7572851,-0.3425628,-7,10,1078685007,375778168,-1.988,0,2,6,30,365286600,2319,1,3,0,5,29,0.67832,-0.3348842,-1416,-9,12,3471,0,0,0,0,0,0,0,130001,375778155,1078685045,1361017,375778142,1078684980,1360958,0,41,53,15,375778162,1078685043,1361054,0,0,0,0,0,0,0,30,30,6,6,6,1,-10,12,-76,29,28,-178,-144,-178,-117,-296,-92,-287,0.67832,-0.3348842,0.6644717,-0.3221204,-9,12,-6,10,6,3,201,1,-1165,-73,-61,1,20,0,0,0,0,-47,-335,-1486,-3,28,-63,0.7926306,-0.2838559,-2.149739,-93,-4,-79,100,7,12,325,-214,-207,-196,-78,-2.075806,1361017,0,0,0,1,0,32785,32778,32825,32748,32777,33769,32747,32752,33774,32773,32780,33732,32706,32799,32779,32694,32727,32797,100,100,100,100,49,52,51,51,178,1,2,0,0,0,48,78,4,79,3,0,0,0,0,12,84,24,14,22,15677,0,0,2385,0,131,2266925408,1,9,1,0,0,0,0,0,0,0,0,0,0,0,0,0,0,0,0,0,0,0,0,0,0,0,0,0,0,0,0,0,0,0,0,0,0,0,0,1,0,0,0,19,0,0,5,0,0,1,1,1,1,2,0,0,0,0,0,0,123,0,0,0,0,0,0,0,0,0,0,0,0,0,0,0,0,0,0,0,0,0,0,0,0,2,0,0,0,0,0,0,0,2,0,0,0,0,0,0,0,0,0,0,0,0,0,0,1000,0,0,0,1000,2,0,1,1,0,2057,7344,7796,6838,6870,4542,4535,4553,4550,713,1098,751,1024,4890,4738,4736,4851,4889,4738,4736,4850,1,1,1,1,130006,0,0,0,0,50,-59,-59,-20,0,0,0,1,1,0,3,0,0,2,0,0,0,0,0,0,0,0,0,0,-150,0,11,0,0,0,3,0,0,0,0,0,0,0,82.79075,-43.74486,0,0,0,0,0,0,2,0,0,0,0,0,130006,382,331,-1165,331,1580,1480,1600,1600,0,0,50,0,0,0,13,0,558,871,22697,0,0,9,0,0,0,0,0,8,0,4179,4181,1,0,0,0,0,0,226,-26,1,0,0,0,721,3000,0,1610,3000,0,46,3000,0,0,0,0,220,227,600,0,2,0,0,0,0,0,0,0,0
130538,118,1,14,4928,246,242,52,0,10,0,1,0,0,0,1,4214842,0,0,0,11451,4,0,0,4,499,0,211,6,1,1,13,2203,1078684997,375778174,1359045,130538,-1.252738,0.07549615,-15,-400,0,0,0,0,0,0,4,2,0,0,1508,1527,1460,1469,1000,0,251,0,6972,7838,6836,7516,-12,-26,-149,-150,-140,-28,12,-973,36,6,3,251,-2.440866,-21,-41,-55,-44,-68,0,0.7641898,-0.3209613,3,2,1078685010,375778168,-2.316,0,2,6,30,365287200,2319,1,3,0,5,30,0.6672,-0.2908205,-1498,3,4,3471,0,0,67,3,0,4390912,127736,130500,375778154,1078685050,1361348,375778140,1078684984,1361304,0,41,53,15,375778162,1078685046,1361334,0,0,0,0,0,0,0,30,30,6,6,6,1,4,5,-56,30,28,-184,-145,-184,-140,-347,-144,-363,0.6672,-0.2908205,0.6647436,-0.2964965,4,5,4,3,6,3,201,1,-1212,-55,-49,1,20,0,0,0,0,-1,-228,-1498,5,22,-50,0.7783586,-0.2845456,-2.424721,-45,-5,-57,100,7,22,325,-239,-240,-228,-51,-2.409302,1361348,0,0,0,1,0,32783,32753,32924,32831,32806,33890,32828,32782,33867,32819,32816,33880,32789,32716,32767,32768,32770,32765,100,100,100,100,49,52,51,51,143,2,2,0,0,0,48,78,4,79,3,0,0,0,0,12,394,19,9,18,15677,0,0,2385,0,131,2266925408,1,6,1,0,0,0,0,0,0,0,0,0,0,0,0,0,0,0,0,0,71,193,89,34,25,51,71,159,160,80,87,170,16,64,47,254,1,1,0,1,37,64,5,14,0,5,2,0,0,2,7,1,7,2,0,0,0,0,0,0,133,0,0,0,0,1,17,1078684996,375778174,60,16,0,2,1,0,0,0,0,0,0,0,0,0,0,0,2,0,0,-6000,0,1,0,0,2,0,0,0,0,0,0,0,0,0,0,0,0,0,0,1000,0,0,0,1000,4,0,1,1,0,2057,7516,7838,6836,6972,4542,4534,4553,4550,725,916,763,1045,4906,4752,4746,4868,4903,4752,4746,4869,1,1,1,1,130506,0,0,0,0,49,-38,-46,-16,4,0,0,1,1,0,3,0,0,2,0,0,0,0,0,0,0,-400,0,0,-250,0,13,0,0,0,3,0,0,0,0,0,0,0,82.79075,-43.74486,0,0,0,0,0,1,3,0,0,0,0,0,130506,363,314,-1215,314,1580,1480,1600,1600,0,0,49,0,0,0,3,0,591,871,24064,0,0,6,0,0,0,0,0,2,0,4168,4168,1,0,0,0,0,0,247,-17,1,0,0,0,547,0,0,1168,0,0,25,0,0,0,0,0,248,248,600,0,2,0,0,0,0,0,0,0,0
131038,118,1,15,5428,246,241,52,0,10,0,1,0,0,0,1,4214842,0,0,0,11451,4,0,0,4,500,0,211,6,1,1,13,2351,1078684997,375778174,1359045,131038,-1.392483,0.7892949,-15,-400,0,0,0,0,0,0,4,2,0,0,1556,1564,1498,1512,1000,0,271,0,7176,7918,7020,7666,-13,-15,-150,-151,-132,-28,19,-912,-17,24,3,271,-2.606736,-22,-12,-9,-37,-64,0,0.8024258,-0.318668,8,0,1078685010,375778171,-2.44,0,3,6,30,365287600,2319,1,3,0,5,29,0.68944,-0.2908205,-1416,5,0,3471,0,0,0,0,0,0,0,131000,375778156,1078685050,1361473,375778143,1078684985,1361440,0,43,55,13,375778165,1078685046,1361505,0,0,0,0,0,0,0,30,30,6,6,6,1,5,-1,-9,29,29,-184,-145,-185,-158,-242,-133,-258,0.68944,-0.2908205,0.7010185,-0.2920888,5,0,8,0,6,3,201,1,-1373,-9,-31,1,20,0,0,0,0,-10,-108,-1500,6,22,-34,0.8099563,-0.2661694,-2.593718,-52,-6,-36,100,7,31,350,-247,-253,-250,-18,-2.535645,1361473,0,0,0,1,0,32792,32800,32924,32798,32703,33664,32765,32691,33669,32752,32718,33649,32803,32810,32769,32814,32787,32763,100,100,100,100,49,52,51,51,143,2,2,0,0,0,48,61,28,62,23,0,0,0,0,12,33,25,14,24,15677,0,0,2385,0,131,2266925408,1,6,1,0,0,0,0,0,0,0,0,0,0,0,0,0,0,0,0,0,71,193,89,34,25,51,71,159,160,80,87,170,16,64,47,254,1,1,0,1,37,64,5,14,0,5,2,0,0,2,7,1,7,2,0,0,0,0,0,0,143,0,0,0,0,1,17,1078684996,375778174,60,16,0,2,1,0,0,0,0,0,0,0,0,0,0,0,2,0,0,-6000,0,1,0,0,2,0,0,0,0,0,0,0,0,0,0,0,0,0,0,1000,0,0,0,1000,4,0,1,1,0,2057,7666,7918,7020,7176,4542,4535,4553,4549,985,1085,904,1066,4923,4767,4770,4876,4923,4767,4769,4876,1,1,1,1,131006,0,0,0,0,53,-43,-34,-16,4,0,0,1,1,0,3,0,0,2,0,0,0,0,0,0,0,-400,0,0,-250,0,12,0,0,0,3,0,0,0,0,0,0,0,82.79075,-43.74486,0,0,0,0,0,1,3,0,0,0,0,0,131006,286,248,-1374,248,1580,1480,1600,1600,0,0,53,0,0,0,8,0,560,870,22769,0,0,6,0,0,0,0,0,1,0,4172,4171,1,0,0,0,0,0,270,-26,1,0,0,0,611,3000,0,683,3000,0,16,3000,0,0,0,0,269,271,600,0,2,0,0,0,0,0,0,0,0
131538,118,1,16,5928,245,241,52,0,10,0,1,0,0,0,1,4214842,0,0,0,11452,4,0,0,4,500,0,211,6,1,1,13,2210,1078684997,375778174,1359045,131538,-1.214845,0.5466969,-15,-400,0,0,0,0,0,0,4,2,0,0,1560,1572,1526,1511,1000,0,294,0,7234,8094,7338,7860,-16,-9,-154,-157,-123,-32,24,-1082,4,19,-1,294,-2.884659,-25,-51,-60,-72,-99,0,0.831274,-0.322579,3,-2,1078685010,375778174,-2.721,0,0,6,30,365288200,2319,1,3,0,5,29,0.73392,-0.2908205,-1498,7,-3,3471,0,0,0,0,0,0,0,131501,375778161,1078685050,1361755,375778147,1078684984,1361717,0,37,48,12,375778169,1078685046,1361771,0,0,0,0,0,0,0,30,30,6,6,6,1,8,-3,-59,29,28,-187,-148,-188,-144,-152,-136,-154,0.73392,-0.2908205,0.7327465,-0.29408,7,-2,4,-2,6,3,201,1,-1531,-60,-65,1,20,0,0,0,0,-33,-44,-1536,0,21,-71,0.8553882,-0.2992094,-2.859072,-42,-4,-42,100,7,39,347,-273,-281,-269,-52,-2.818726,1361755,0,0,0,1,0,32682,32773,32864,32855,32817,33801,32839,32753,33800,32827,32732,33792,32806,32776,32776,32812,32874,32771,100,100,100,100,49,52,51,51,131,2,2,0,0,0,48,61,28,62,23,0,0,0,0,12,-203,30,15,30,15677,0,0,2385,0,131,2266925408,1,6,1,0,0,0,0,0,0,0,0,0,0,0,0,0,0,0,0,0,71,193,89,34,25,51,71,159,160,80,87,170,16,64,47,254,1,1,0,1,37,64,5,14,0,5,2,0,0,2,7,1,7,2,0,0,0,0,0,0,152,0,0,0,0,1,17,1078684996,375778174,60,16,0,2,1,0,0,0,0,0,0,0,0,0,0,0,2,0,0,-6000,0,1,0,0,2,0,0,0,0,0,0,0,0,0,0,0,0,0,0,1000,0,0,0,1000,4,0,1,1,0,2057,7758,8032,7322,7222,4541,4535,4553,4549,925,1185,921,1147,4899,4783,4745,4876,4899,4781,4746,4876,1,1,1,1,131506,0,0,0,0,54,-77,-69,-5,4,0,0,1,1,0,3,0,0,2,0,0,0,0,0,0,0,-400,0,0,-250,0,11,0,0,0,3,0,0,0,0,0,0,0,82.79075,-43.74486,0,0,0,0,0,1,3,0,0,0,0,0,131506,182,157,-1531,157,1580,1480,1600,1600,0,0,54,0,0,0,4,0,642,870,26241,0,0,6,0,0,0,0,0,-1,0,4162,4162,1,0,0,0,0,0,293,-20,1,0,0,0,721,3000,0,429,3000,0,12,3000,0,0,0,0,299,294,600,0,2,0,0,0,0,0,0,0,0
132038,118,1,17,6428,245,241,52,0,10,0,1,0,0,0,1,4214842,0,0,0,11453,4,0,0,4,501,0,211,6,1,1,13,2031,1078684997,375778174,1359045,132038,-0.6998791,-0.1513582,-15,-400,0,0,0,0,0,0,4,2,0,0,1560,1563,1531,1490,1000,0,343,0,7148,8052,7382,8078,-12,-15,-159,-155,-116,-33,17,-1110,21,1,-8,343,-3.37614,-28,-58,-104,-122,-150,0,0.8243783,-0.3459985,-3,-4,1078685008,375778174,-3.066,0,1,6,30,365288600,2319,1,3,0,5,28,0.73392,-0.308446,-1498,-1,-5,3471,0,0,0,0,0,0,0,132000,375778161,1078685048,1362102,375778147,1078684982,1362064,0,44,55,12,375778169,1078685043,1362246,0,0,0,0,0,0,0,30,30,6,6,6,1,-1,-5,-105,28,28,-192,-153,-192,-133,-98,-157,-98,0.73392,-0.308446,0.7304736,-0.3159027,0,-4,-2,-4,6,3,201,1,-1386,-104,-116,1,20,0,0,0,0,24,-87,-1586,-8,26,-123,0.8478561,-0.2996334,-3.332468,-101,1,-77,100,7,46,354,-305,-316,-303,-98,-3.168091,1362102,0,0,0,1,0,32816,32660,32954,32771,32940,33970,32757,32858,33997,32755,32974,33945,32772,32739,32784,32757,32675,32791,100,100,100,100,49,52,51,51,124,1,2,0,0,0,48,61,28,62,23,0,0,0,0,12,-416,46,27,45,15677,0,0,2385,0,131,2266925408,1,6,1,0,0,0,0,0,0,0,0,0,0,0,0,0,0,0,0,0,71,193,89,34,25,51,71,159,160,80,87,170,16,64,47,254,1,1,0,1,37,64,5,14,0,5,2,0,0,2,7,1,7,2,0,0,0,0,0,0,162,0,0,0,0,1,17,1078684996,375778174,60,16,0,2,1,0,0,0,0,0,0,0,0,0,0,0,2,0,0,-6000,0,1,0,0,2,0,0,0,0,0,0,0,0,0,0,0,0,0,0,1000,0,0,0,1000,4,0,1,1,0,2057,8078,8052,7382,7200,4541,4535,4553,4549,853,1170,938,1121,4893,4781,4746,4879,4893,4781,4745,4878,1,1,1,1,132006,0,0,0,0,53,-121,-120,9,4,0,0,1,1,0,3,0,0,2,0,0,0,0,0,0,0,-400,0,0,-250,0,9,0,0,0,3,0,0,0,0,0,0,0,82.79075,-43.74486,0,0,0,0,0,1,3,0,0,0,0,0,132006,279,241,-1386,241,1580,1480,1600,1600,0,0,53,0,0,0,5,0,690,869,28201,0,0,6,0,0,0,0,0,-5,0,4175,4175,1,0,0,0,0,0,336,-29,1,0,0,0,516,3000,0,653,3000,0,13,3000,0,0,0,0,349,337,600,0,2,0,0,0,0,0,0,0,0
132538,118,1,18,6928,244,238,52,0,10,0,1,0,0,0,1,4214842,0,0,0,11453,4,0,0,4,501,0,211,6,1,1,13,2218,1078684997,375778174,1359045,132538,0.7078102,-1.979642,-15,-400,0,0,0,0,0,0,4,2,0,0,1606,1607,1571,1560,1000,0,412,0,7502,8326,8162,8418,3,-15,-163,-162,-102,-43,8,-1064,-2,14,-19,412,-4.071819,-36,-164,-145,-157,-185,0,0.7765428,-0.3843033,-14,-9,1078685003,375778169,-3.848,0,2,6,30,365289200,2319,1,3,0,5,29,0.68944,-0.343697,-1520,-16,-8,3471,0,0,0,0,0,0,0,132500,375778157,1078685044,1362887,375778143,1078684979,1362846,0,44,55,12,375778165,1078685039,1362933,0,0,0,0,0,0,0,30,30,6,6,6,1,-17,-8,-141,29,28,-198,-158,-198,-150,-115,-124,-148,0.68944,-0.343697,0.6905813,-0.3504873,-16,-7,-14,-9,6,3,201,1,-1043,-145,-148,1,20,0,0,0,0,162,-69,-1637,-21,23,-155,0.8125928,-0.3752663,-4.015801,-140,3,-126,100,7,52,355,-392,-395,-361,-138,-3.955444,1362887,0,0,0,1,0,32805,32698,32930,32832,32852,33802,32832,32731,33760,32821,32736,33769,32798,32779,32802,32777,32841,32802,100,100,100,100,49,52,51,51,117,2,2,0,0,0,48,61,28,62,23,0,0,0,0,12,-939,59,44,58,15677,0,0,2385,0,131,2266925408,1,6,1,0,0,0,0,0,0,0,0,0,0,0,0,0,0,0,0,0,71,193,89,34,25,51,71,159,160,80,87,170,16,64,47,254,1,1,0,1,37,64,5,14,0,5,2,0,0,2,7,1,7,2,0,0,0,0,0,0,172,0,0,0,0,1,17,1078684996,375778174,60,16,0,2,1,0,0,0,0,0,0,0,0,0,0,0,2,0,0,-6000,0,1,0,0,2,0,0,0,0,0,0,0,0,0,0,0,0,0,0,1000,0,0,0,1000,4,0,1,1,0,2057,8418,8326,8162,7502,4542,4535,4554,4549,1128,1195,1089,1382,4896,4784,4770,4871,4896,4784,4770,4871,1,1,1,1,132506,0,0,0,0,58,-168,-154,24,4,0,0,1,1,0,3,0,0,2,0,0,0,0,0,0,0,-400,0,0,-250,0,7,0,0,0,3,0,0,0,0,0,0,0,82.79075,-43.74486,0,0,0,0,0,1,3,0,0,0,0,0,132506,429,371,-1043,371,1580,1480,1600,1600,0,0,58,0,0,0,16,0,699,869,28651,0,0,6,0,0,0,0,0,-13,0,4193,4192,1,0,0,0,0,0,411,-29,1,0,0,0,-83,3000,0,605,3000,0,-2,3000,0,0,0,0,415,412,600,0,2,0,0,0,0,0,0,0,0
133038,118,1,19,7428,243,239,52,0,10,0,1,0,0,0,1,4214842,0,0,0,11454,4,0,0,4,501,0,211,6,1,1,13,2242,1078684997,375778174,1359045,133038,-0.05603562,-4.046664,-15,-400,0,0,0,0,0,0,4,2,0,0,1600,1593,1563,1561,1000,0,502,0,7958,8528,8048,8248,2,-40,-158,-159,-91,-45,9,-1089,15,-72,17,502,-5.018771,-45,-185,-192,-217,-244,0,0.674528,-0.3949791,-19,1,1078685001,375778162,-4.526,0,0,6,30,365289600,2319,1,3,0,5,29,0.6116,-0.3701352,-1623,-22,0,3471,0,0,0,0,0,0,0,133001,375778150,1078685041,1363567,375778135,1078684976,1363552,0,41,64,24,375778156,1078685038,1363856,0,0,0,0,0,0,0,30,30,6,6,6,1,-23,0,-196,29,28,-226,-153,-226,21,-126,24,-175,0.6116,-0.3701352,0.5896621,-0.3694012,-22,0,-19,2,6,3,201,1,-206,-192,-210,1,20,0,0,0,0,177,-325,-1580,-23,39,-218,0.706428,-0.3569465,-4.940969,-199,9,-163,100,7,56,343,-473,-463,-438,-188,-4.637207,1363567,0,0,0,1,0,32709,32618,32853,32779,32926,33845,32777,32900,33896,32765,32939,33844,32640,32767,32743,32611,32749,32739,100,100,100,100,49,52,51,51,107,2,3,0,0,0,48,62,23,60,22,0,0,0,0,12,-673,74,52,72,15677,0,0,2385,0,131,2266925408,1,6,1,0,0,0,0,0,0,0,0,0,0,0,0,0,0,0,0,0,71,193,89,34,25,51,71,159,160,80,87,170,16,64,47,254,1,1,0,1,37,64,10,9,0,10,2,0,0,2,7,1,7,2,0,0,0,0,0,0,181,0,0,0,0,1,17,1078684996,375778174,60,16,0,2,1,0,0,0,0,0,0,0,0,0,0,0,2,0,0,-6000,0,1,0,0,2,0,0,0,0,0,0,0,0,0,0,0,0,0,0,1000,0,0,0,1000,4,0,1,1,0,2057,8248,8528,8002,7958,4542,4535,4553,4548,1103,1134,1162,1406,4907,4798,4760,4858,4907,4799,4762,4860,1,1,1,1,133006,0,0,0,0,57,-218,-215,7,4,0,0,1,1,0,3,0,0,2,0,0,0,0,0,0,0,-400,0,0,-250,0,15,0,0,0,3,0,0,0,0,0,0,0,82.79075,-43.74486,0,0,0,0,0,1,3,0,0,0,0,0,133006,666,576,-206,576,1580,1480,1600,1600,0,0,57,0,0,0,19,0,825,869,33956,0,0,6,0,0,0,0,0,-4,0,4192,4193,1,0,0,0,0,0,500,-42,1,0,0,0,-113,0,0,1736,0,0,-7,0,0,0,0,0,480,502,600,0,2,0,0,0,0,0,0,0,0
133538,118,1,20,7928,244,238,52,0,10,0,1,0,0,0,1,4214842,0,0,0,11455,4,0,0,4,501,0,211,6,1,1,13,2375,1078684997,375778174,1359045,133538,-1.042901,-3.01373,-15,-400,0,0,0,0,0,0,4,2,0,0,1595,1614,1563,1552,1000,0,635,0,7712,8534,7994,8246,-12,-41,-155,-157,-80,-52,19,-1103,-22,-1,3,635,-6.242354,-55,-196,-252,-265,-291,0,0.6394294,-0.3677093,-1,5,1078685005,375778157,-5.926,0,2,6,30,365290200,2319,1,3,0,5,29,0.54488,-0.343697,-1600,-6,9,3471,0,0,0,0,0,0,0,133500,375778144,1078685044,1364955,375778129,1078684978,1364927,0,44,56,15,375778152,1078685041,1365054,0,0,0,0,0,0,0,30,30,6,6,6,1,-7,9,-255,29,28,-221,-152,-221,44,-365,15,-395,0.54488,-0.343697,0.5437872,-0.344241,-6,9,-1,7,6,3,201,1,-253,-252,-259,1,20,0,0,0,0,34,-337,-1561,-6,41,-266,0.659604,-0.364009,-6.147298,-22,13,-222,100,7,99,344,-576,-601,-544,-254,-6.013428,1364955,0,0,0,1,0,32831,32627,32860,32834,32708,33998,32806,32754,33984,32794,32775,33994,32747,32820,32764,32767,32798,32769,100,100,100,100,49,52,51,51,85,3,3,0,0,0,48,62,23,60,22,0,0,0,0,12,-1207,-2,-3,-2,14649,0,0,2385,0,131,2266925408,1,6,1,0,0,0,0,0,0,0,0,0,0,0,0,0,0,0,0,0,71,193,89,34,25,51,71,159,160,80,87,170,16,64,47,254,1,1,0,1,37,64,10,9,0,10,2,0,0,2,7,1,7,2,0,0,0,0,0,0,191,0,0,0,0,1,17,1078684996,375778174,60,16,0,2,1,0,0,0,0,0,0,0,0,0,0,0,2,0,0,-6000,0,1,0,0,2,0,0,0,0,0,0,0,0,0,0,0,0,0,0,1000,0,0,0,1000,4,0,1,1,0,2057,8370,8534,7994,7712,4542,4535,4553,4549,1109,1385,1068,1348,4925,4811,4792,4899,4925,4811,4792,4900,1,1,1,1,133506,0,0,0,0,58,-265,-263,1,4,0,0,1,1,0,3,0,0,2,0,0,0,0,0,0,0,-400,0,0,-250,0,20,0,0,0,3,0,0,0,0,0,0,0,82.79075,-43.74486,0,0,0,0,0,1,3,0,0,0,0,0,133506,655,566,-226,566,1580,1480,1600,1600,0,0,58,0,0,0,6,0,833,868,34154,0,0,6,0,0,0,0,0,5,0,4202,4202,1,0,0,0,0,0,613,-24,1,0,0,0,523,3000,0,1793,3000,0,37,3000,0,0,0,0,0,615,0,0,2,0,0,0,0,0,0,0,0
134038,118,1,21,8428,243,236,52,0,10,0,1,0,0,0,1,4214842,0,0,0,11457,4,0,0,4,501,0,211,6,1,1,13,2218,1078684997,375778174,1359045,134038,-0.5464741,-2.588784,-15,-400,0,0,0,0,0,0,4,2,0,0,1580,1577,1578,1557,1000,0,772,0,7700,8216,8094,8274,-5,-28,-161,-161,-75,-54,9,-1058,-30,43,2,772,-7.641794,-69,-291,-284,-289,-316,0,0.6563822,-0.3678397,3,-1,1078685005,375778158,-7.011,0,3,6,30,365290600,2319,1,3,0,5,29,0.556,-0.3348842,-1700,3,-1,3471,0,0,0,0,0,0,0,134000,375778145,1078685045,1366043,375778129,1078684979,1366018,0,40,52,15,375778153,1078685041,1366449,0,0,0,0,0,0,0,30,30,6,6,6,1,4,-1,-282,29,28,-222,-156,-222,-97,-414,-130,-398,0.556,-0.3348842,0.5580921,-0.3394329,3,0,4,0,6,3,201,1,-588,-284,-287,1,20,0,0,0,0,103,-237,-1607,-4,40,-295,0.6678476,-0.3284227,-7.537971,-105,14,-268,100,7,99,349,-722,-710,-674,-277,-7.104614,1366043,0,0,0,1,0,32837,32864,33004,32761,32622,33829,32718,32633,33803,32732,32642,33799,32862,32835,32776,32872,32825,32786,100,100,100,100,49,52,51,51,83,2,3,0,0,0,48,62,23,60,22,0,0,0,0,12,-847,-2,-1,-2,15677,0,0,2385,0,131,2266925408,1,6,1,0,0,0,0,0,0,0,0,0,0,0,0,0,0,0,0,0,71,193,89,34,25,51,71,159,160,80,87,170,16,64,47,254,1,1,0,1,37,64,10,9,0,10,2,0,0,2,7,1,7,2,0,0,0,0,0,0,200,0,0,0,0,1,17,1078684996,375778174,60,16,0,2,1,0,0,0,0,0,0,0,0,0,0,0,2,0,0,-6000,0,1,0,0,2,0,0,0,0,0,0,0,0,0,0,0,0,0,0,1000,0,0,0,1000,4,0,1,1,0,2057,8274,8216,8094,7836,4542,4534,4552,4549,995,1306,905,1485,4904,4811,4756,4916,4904,4809,4756,4917,1,1,1,1,134006,0,0,0,0,57,-287,-288,16,4,0,0,1,1,0,3,0,0,2,0,0,0,0,0,0,0,-400,0,0,-250,0,18,0,0,0,3,0,0,0,0,0,0,0,82.79075,-43.74486,0,0,0,0,0,1,3,0,0,0,0,0,134006,570,493,-598,493,1580,1480,1600,1600,0,0,57,0,0,0,3,0,824,867,33938,0,0,6,0,0,0,0,0,0,0,4199,4199,1,0,0,0,0,0,746,-45,1,0,0,0,248,3000,0,1356,3000,0,13,3000,0,0,0,0,0,748,0,0,2,0,0,0,0,0,0,0,0
134538,118,1,22,8928,243,238,52,0,10,0,1,0,0,0,1,4214842,0,0,0,11458,4,0,0,4,500,0,211,6,1,1,13,2187,1078684997,375778174,1359045,134538,-1.219638,-3.478469,-15,-400,0,0,0,0,0,0,4,2,0,0,1595,1604,1604,1562,1000,0,939,0,7630,8150,7722,8330,-15,-28,-160,-160,-79,-61,17,-1064,-19,16,4,939,-9.112229,-85,-319,-298,-286,-310,0,0.6654311,-0.3600075,0,4,1078685006,375778159,-8.769,0,0,6,30,365291200,2319,1,3,0,5,29,0.56712,-0.3348842,-1600,0,3,3471,0,0,0,0,0,0,0,134501,375778146,1078685045,1367803,375778131,1078684979,1367777,0,44,55,12,375778154,1078685041,1367920,0,0,0,0,0,0,0,30,30,6,6,6,1,-1,3,-299,29,28,-222,-155,-222,-82,-295,-69,-288,0.56712,-0.3348842,0.5693495,-0.335767,0,3,0,4,6,3,201,1,-106,-298,-290,1,20,0,0,0,0,26,-221,-1605,-8,46,-294,0.6834493,-0.3685656,-9.009361,-250,16,-294,100,7,99,325,-871,-886,-818,-298,-8.866699,1367803,0,0,0,1,0,32756,32873,32877,32865,32563,33844,32858,32537,33791,32841,32573,33840,32738,32807,32765,32761,32792,32773,100,100,100,100,49,52,51,51,80,3,3,0,0,0,48,62,23,60,22,0,0,0,0,12,-560,-4,-2,-4,14649,0,0,2385,0,131,2266925408,1,6,1,0,0,0,0,0,0,0,0,0,0,0,0,0,0,0,0,0,71,193,89,34,25,51,71,159,160,80,87,170,16,64,47,254,1,1,0,1,37,64,10,9,0,10,2,0,0,2,7,1,7,2,0,0,0,0,0,0,210,0,0,0,0,1,17,1078684996,375778174,60,16,0,2,1,0,0,0,0,0,0,0,0,0,0,0,2,0,0,-6000,0,1,0,0,2,0,0,0,0,0,0,0,0,0,0,0,0,0,0,1000,0,0,0,1000,4,0,1,1,0,2057,8254,8150,7796,7630,4542,4534,4552,4549,922,1269,860,1425,4916,4811,4748,4895,4916,4811,4749,4893,1,1,1,1,134506,0,0,0,0,58,-295,-287,15,4,0,0,1,1,0,3,0,0,2,0,0,0,0,0,0,0,-400,0,0,-250,0,17,0,0,0,3,0,0,0,0,0,0,0,82.79075,-43.74486,0,0,0,0,0,1,3,0,0,0,0,0,134506,696,602,-106,602,1580,1480,1600,1600,0,0,58,0,0,0,3,0,780,866,32122,0,0,6,0,0,0,0,0,3,0,4199,4197,1,0,0,0,0,0,923,-44,1,0,0,0,589,3000,0,1301,3000,0,30,3000,0,0,0,0,0,925,0,0,2,0,0,0,0,0,0,0,0
135038,118,1,23,9428,243,238,52,0,10,0,1,0,0,0,1,4214842,0,0,0,11460,4,0,0,4,500,0,211,6,1,1,13,2546,1078684997,375778174,1359045,135038,-1.255488,-4.324336,-15,-400,0,0,0,0,0,0,4,2,0,0,1591,1582,1571,1551,1000,0,1074,0,7738,8330,8270,8134,-16,-35,-161,-167,-82,-65,29,-1041,12,-21,-15,1074,-10.58824,-98,-278,-291,-300,-327,0,0.6635803,-0.3350618,-3,3,1078685008,375778159,-9.931001,0,2,6,30,365291600,2319,1,3,0,5,29,0.57824,-0.3172587,-1725,0,7,3471,0,0,0,0,0,0,0,135000,375778147,1078685047,1368959,375778131,1078684982,1368938,0,41,52,12,375778154,1078685044,1369384,0,0,0,0,0,0,0,30,30,6,6,6,1,0,7,-294,29,29,-223,-156,-223,-118,-354,-138,-301,0.57824,-0.3172587,0.5697597,-0.3088447,1,7,-2,3,6,3,201,1,264,-291,-301,1,20,0,0,0,0,-16,-272,-1618,-14,48,-309,0.6690985,-0.296572,-10.48042,-250,-1,-282,100,7,99,357,-1002,-1001,-964,-292,-10.01672,1368959,0,0,0,1,0,32840,32789,32989,32865,32739,33833,32849,32655,33842,32852,32696,33822,32696,32718,32803,32677,32700,32805,100,100,100,100,49,52,51,51,79,3,3,0,0,0,48,62,23,60,22,0,0,0,0,12,-235,-11,-6,-11,15677,0,0,2385,0,131,2266925408,1,6,1,0,0,0,0,0,0,0,0,0,0,0,0,0,0,0,0,0,71,193,89,34,25,51,71,159,160,80,87,170,16,64,47,254,1,1,0,1,37,64,10,9,0,10,2,0,0,2,7,1,7,2,0,0,0,0,0,0,220,0,0,0,0,1,17,1078684996,375778174,60,16,0,2,1,0,0,0,0,0,0,0,0,0,0,0,2,0,0,-6000,0,1,0,0,2,0,0,0,0,0,0,0,0,0,0,0,0,0,0,1000,0,0,0,1000,4,0,1,1,0,2057,8114,8328,8270,7738,4541,4534,4552,4548,1035,1264,1101,1212,4927,4825,4732,4923,4927,4826,4732,4923,1,1,1,1,135006,0,0,0,0,57,-298,-300,18,4,0,0,1,1,0,3,0,0,2,0,0,0,0,0,0,0,-400,0,0,-250,0,19,0,0,0,3,0,0,0,0,0,0,0,82.79075,-43.74486,0,0,0,0,0,1,3,0,0,0,0,0,135006,768,664,264,664,1580,1480,1600,1600,0,0,57,0,0,0,5,0,888,866,36582,0,0,6,0,0,0,0,0,3,0,4190,4189,1,0,0,0,0,0,1060,-63,1,0,0,0,791,3000,0,1550,3000,0,49,3000,0,0,0,0,0,1063,0,0,2,0,0,0,0,0,0,0,0
135538,118,1,24,9928,243,238,52,0,10,0,1,0,0,0,1,4214842,0,0,0,11461,4,0,0,4,500,0,211,6,1,1,13,3007,1078684997,375778174,1359045,135538,-1.043705,-4.057535,-15,-400,0,0,0,0,0,0,4,2,0,0,1583,1594,1569,1533,1000,0,1214,0,7520,8268,7936,8038,-17,-43,-161,-163,-83,-54,27,-999,20,-25,-6,1214,-12.10707,-110,-252,-299,-299,-324,0,0.6509198,-0.329674,0,0,1078685009,375778158,-11.765,0,0,6,30,365292200,2319,1,3,0,5,30,0.556,-0.2996332,-1623,0,0,3471,0,0,0,0,0,0,0,135500,375778145,1078685049,1370791,375778130,1078684984,1370761,0,44,55,12,375778153,1078685045,1370903,0,0,0,0,0,0,0,30,30,6,6,6,1,0,0,-301,30,29,-222,-155,-222,-170,-356,-167,-363,0.556,-0.2996332,0.5542944,-0.3013303,1,0,1,0,6,3,201,1,50,-299,-302,1,20,0,0,0,0,-9,-350,-1611,-8,44,-307,0.6631676,-0.3448999,-11.99941,-250,-1,-302,100,7,40,334,-1139,-1184,-1115,-305,-11.84631,1370791,0,0,0,1,0,32567,32709,32754,32856,32698,33909,32881,32790,33921,32876,32847,33920,32717,32757,32788,32724,32749,32790,100,100,100,100,49,52,51,51,78,4,2,0,0,0,48,70,24,71,22,0,0,0,0,12,-693,-10,-5,-10,15677,0,0,2385,0,131,2266925408,1,6,1,0,0,0,0,0,0,0,0,0,0,0,0,0,0,0,0,0,71,193,89,34,25,51,71,159,160,80,87,170,16,64,47,254,1,1,0,1,37,64,10,9,0,10,2,0,0,2,7,1,7,2,0,0,0,0,0,0,229,0,0,0,0,1,17,1078684996,375778174,60,16,0,2,1,0,0,0,0,0,0,0,0,0,0,0,2,0,0,-6000,0,1,0,0,2,0,0,0,0,0,0,0,0,0,0,0,0,0,0,1000,0,0,0,1000,4,0,1,1,0,2057,8038,8268,7936,7520,4540,4534,4552,4547,1005,1171,1131,1170,4944,4837,4762,4928,4944,4837,4762,4928,1,1,1,1,135506,0,0,0,0,56,-299,-300,16,4,0,0,1,1,0,3,0,0,2,0,0,0,0,0,0,0,-400,0,0,-250,0,20,0,0,0,3,0,0,0,0,0,0,0,82.79075,-43.74486,0,0,0,0,0,1,3,0,0,0,0,0,135506,724,625,50,625,1580,1480,1600,1600,0,0,56,0,0,0,0,0,776,865,31942,0,0,6,0,0,0,0,0,0,0,4192,4193,1,0,0,0,0,0,1209,-37,1,0,0,0,760,3000,0,1894,3000,0,57,3000,0,0,0,0,0,1214,0,0,2,0,0,0,0,0,0,0,0
136038,118,1,25,10428,243,237,52,0,10,0,1,0,0,0,1,4214842,0,0,0,11463,4,0,0,4,499,0,211,6,1,1,13,2359,1078684997,375778174,1359045,136038,-0.9732596,-3.832257,-15,-400,0,0,0,0,0,0,4,2,0,0,1596,1612,1610,1555,1000,0,1379,0,7914,8526,8458,8628,-16,-34,-164,-167,-86,-58,23,-970,18,6,0,1379,-13.57765,-126,-337,-284,-296,-321,0,0.6699572,-0.337155,4,-2,1078685009,375778159,-12.948,0,1,6,30,365292600,2319,1,3,0,5,29,0.56712,-0.2996332,-1700,4,-2,3471,0,0,0,0,0,0,0,136001,375778146,1078685049,1371975,375778130,1078684983,1371950,0,37,48,16,375778155,1078685044,1372377,0,0,0,0,0,0,0,30,30,6,6,6,1,4,-2,-283,29,29,-224,-158,-225,-151,-407,-166,-436,0.56712,-0.2996332,0.572043,-0.3073338,4,-1,4,-2,6,3,201,1,65,-284,-293,1,20,0,0,0,0,12,-268,-1641,-7,46,-300,0.6696727,-0.3078362,-13.47146,-250,-3,-297,100,7,47,337,-1314,-1303,-1265,-288,-13.0321,1371975,0,0,0,1,0,32800,32891,32925,32760,32616,33748,32733,32610,33748,32718,32686,33700,32784,32735,32776,32786,32775,32787,100,100,100,100,49,52,51,51,78,3,2,0,0,0,48,70,24,71,22,0,0,0,0,12,56,-15,-8,-15,15677,0,0,2385,0,131,2266925408,1,6,1,0,0,0,0,0,0,0,0,0,0,0,0,0,0,0,0,0,71,193,89,34,25,51,71,159,160,80,87,170,16,64,47,254,1,1,0,1,37,64,15,4,0,15,2,0,0,2,7,1,7,2,0,0,0,0,0,0,239,0,0,0,0,1,17,1078684996,375778174,60,16,0,2,1,0,0,0,0,0,0,0,0,0,0,0,2,0,0,-6000,0,1,0,0,2,0,0,0,0,0,0,0,0,0,0,0,0,0,0,1000,0,0,0,1000,4,0,1,1,0,2057,8364,8526,8586,7914,4540,4534,4553,4549,1037,1286,1187,1439,4977,4830,4804,4892,4976,4832,4805,4892,1,1,1,1,136006,0,0,0,0,59,-299,-295,26,4,0,0,1,1,0,3,0,0,2,0,0,0,0,0,0,0,-400,0,0,-250,0,18,0,0,0,3,0,0,0,0,0,0,0,82.79075,-43.74486,0,0,0,0,0,1,3,0,0,0,0,0,136006,727,628,65,628,1580,1480,1600,1600,0,0,59,0,0,0,5,0,802,865,33021,0,0,6,0,0,0,0,0,-1,0,4202,4202,1,0,0,0,0,0,1354,-56,1,0,0,0,677,3000,0,1538,3000,0,41,3000,0,0,0,0,0,1358,0,0,2,0,0,0,0,0,0,0,0
136538,118,1,26,10928,242,236,52,0,10,0,1,0,0,0,1,4214842,0,0,0,11464,4,0,0,4,499,0,211,6,1,1,13,2210,1078684997,375778174,1359045,136538,-0.2466854,-5.170407,-15,-400,0,0,0,0,0,0,4,2,0,0,1621,1602,1619,1592,1000,0,1535,0,8132,8504,8614,8474,-7,-35,-164,-167,-79,-77,19,-998,-16,-4,-5,1535,-15.05554,-142,-334,-294,-293,-319,0,0.6704426,-0.359679,-5,-5,1078685006,375778160,-14.716,0,0,6,30,365293200,2319,1,3,0,5,29,0.57824,-0.3260714,-1623,-5,-5,3471,0,0,0,0,0,0,0,136500,375778147,1078685046,1373747,375778132,1078684981,1373708,0,45,57,15,375778155,1078685042,1373860,0,0,0,0,0,0,0,30,30,6,6,6,1,-6,-6,-293,29,29,-224,-157,-224,-164,-358,-170,-352,0.57824,-0.3260714,0.5786606,-0.3284431,-5,-5,-5,-5,6,3,201,1,1017,-294,-293,1,20,0,0,0,0,76,-273,-1642,-18,43,-301,0.6780518,-0.3759423,-14.95037,-250,-4,-295,100,7,52,345,-1465,-1480,-1412,-291,-14.80811,1373747,0,0,0,1,0,32750,32852,32877,32763,32664,33827,32871,32661,33849,32873,32692,33833,32753,32789,32787,32736,32751,32789,100,100,100,100,49,52,51,51,76,3,2,0,0,0,48,70,24,71,22,0,0,0,0,12,135,-17,-13,-17,15677,0,0,2385,0,131,2266925408,1,6,1,0,0,0,0,0,0,0,0,0,0,0,0,0,0,0,0,0,71,193,89,34,25,51,71,159,160,80,87,170,16,64,47,254,1,1,0,1,37,64,15,4,0,15,2,0,0,2,7,1,7,2,0,0,0,0,0,0,248,0,0,0,0,1,17,1078684996,375778174,60,16,0,2,1,0,0,0,0,0,0,0,0,0,0,0,2,0,0,-6000,0,1,0,0,2,0,0,0,0,0,0,0,0,0,0,0,0,0,0,1000,0,0,0,1000,4,0,1,1,0,2057,8474,8442,8614,8132,4541,4534,4552,4547,1113,1288,1297,1246,4979,4853,4819,4920,4977,4851,4818,4921,1,1,1,1,136506,0,0,0,0,60,-299,-293,26,4,0,0,1,1,0,3,0,0,2,0,0,0,0,0,0,0,-400,0,0,-250,0,17,0,0,0,3,0,0,0,0,0,0,0,82.79075,-43.74486,0,0,0,0,0,1,3,0,0,0,0,0,136506,908,784,1025,784,1580,1480,1600,1600,0,0,60,0,0,0,7,0,872,864,36061,0,0,6,0,0,0,0,0,-6,0,4202,4202,1,0,0,0,0,0,1515,-50,1,0,0,0,370,3000,0,1561,3000,0,23,3000,0,0,0,0,0,1519,0,0,2,0,0,0,0,0,0,0,0
137038,118,1,27,11428,242,237,52,0,10,0,1,0,0,0,1,4214842,0,0,0,11465,4,0,0,4,499,0,211,6,1,1,13,2914,1078684997,375778174,1359045,137038,-0.3644973,-7.054212,-15,-400,0,0,0,0,0,0,4,2,0,0,1603,1621,1635,1588,1000,0,1677,0,7790,8598,8628,8044,-14,-53,-161,-160,-70,-100,29,-1075,70,17,-6,1677,-16.55488,-155,-276,-314,-293,-316,0,0.6108274,-0.3631244,-12,1,1078685005,375778156,-15.927,0,0,6,30,365293600,2319,1,3,0,5,30,0.53376,-0.343697,-1543,-11,3,3471,0,0,0,0,0,0,0,137000,375778143,1078685044,1374957,375778129,1078684980,1374915,0,44,68,25,375778150,1078685041,1375350,0,0,0,0,0,0,0,30,30,6,6,6,1,-13,3,-320,30,29,-221,-154,-221,-59,-383,-55,-350,0.53376,-0.343697,0.5226949,-0.3355192,-11,3,-11,1,6,3,201,1,861,-314,-293,1,20,0,0,0,0,2,-454,-1610,-24,51,-301,0.6105239,-0.324214,-16.44967,-169,-2,-298,100,7,57,321,-1607,-1601,-1561,-311,-16.0166,1374957,0,0,0,1,0,32765,32756,32868,32700,32728,33897,32688,32694,33887,32689,32747,33881,32816,32661,32783,32809,32682,32792,100,100,100,100,49,52,51,51,74,4,2,0,0,0,48,70,24,71,22,0,0,0,0,12,-2,-13,-9,-13,15677,0,0,2385,0,131,2266925408,1,6,1,0,0,0,0,0,0,0,0,0,0,0,0,0,0,0,0,0,71,193,89,34,25,51,71,159,160,80,87,170,16,64,47,254,1,1,0,1,37,64,15,4,0,15,2,0,0,2,7,1,7,2,0,0,0,0,0,0,2,0,0,0,0,1,17,1078684996,375778174,60,16,0,2,1,0,0,0,0,0,0,0,0,0,0,0,2,0,0,-6000,0,1,0,0,2,0,0,0,0,0,0,0,0,0,0,0,0,0,0,1000,0,0,0,1000,4,0,1,1,0,2057,8044,8598,8604,8034,4540,4534,4552,4547,986,1479,1294,1352,4995,4855,4804,4896,4994,4854,4802,4895,1,1,1,1,137006,0,0,0,0,61,-299,-293,16,4,0,0,1,1,0,3,0,0,2,0,0,0,0,0,0,0,-400,0,0,-250,0,22,0,0,0,3,0,0,0,0,0,0,0,82.79075,-43.74486,0,0,0,0,0,1,3,0,0,0,0,0,137006,880,761,861,761,1580,1480,1600,1600,0,0,61,0,0,0,12,0,901,863,37266,0,0,6,0,0,0,0,0,-1,0,4181,4182,1,0,0,0,0,0,1668,-72,1,0,0,0,695,3000,0,2352,3000,0,65,3000,0,0,0,0,0,1677,0,0,2,0,0,0,0,0,0,0,0
137538,118,1,28,11928,242,235,52,0,10,0,1,0,0,0,1,4214842,0,0,0,11467,4,0,0,4,499,0,211,6,1,1,13,2539,1078684997,375778174,1359045,137538,0.3098633,-6.635599,-15,-400,0,0,0,0,0,0,4,2,0,0,1640,1629,1607,1602,1000,0,1834,0,8212,8484,8670,8618,2,-60,-162,-163,-93,-80,10,-1046,41,-55,-2,1834,-18.04127,-169,-295,-295,-295,-317,0,0.5729218,-0.3858194,-4,-5,1078685003,375778151,-17.708,0,2,6,30,365294200,2319,1,3,0,5,30,0.47816,-0.3525097,-1520,-4,-7,3471,0,0,0,0,0,0,0,137501,375778138,1078685043,1376737,375778124,1078684978,1376690,0,41,52,12,375778146,1078685039,1376843,0,0,0,0,0,0,0,30,31,6,6,6,1,-5,-7,-291,30,28,-222,-156,-222,-157,-561,-130,-547,0.47816,-0.3525097,0.4798037,-0.3539366,-3,-6,-4,-5,6,3,201,1,1431,-295,-293,1,20,0,0,0,0,176,-511,-1626,-15,44,-298,0.5777083,-0.3961907,-17.9353,-250,-5,-295,100,7,99,312,-1754,-1779,-1710,-295,-17.79541,1376737,0,0,0,1,0,32805,32878,33002,32836,32617,33782,32857,32682,33780,32857,32650,33752,32615,32706,32780,32586,32658,32780,100,100,100,100,49,51,51,51,71,4,2,0,0,0,48,70,24,71,22,0,0,0,0,12,58,-15,-11,-16,14649,0,0,2385,0,131,2266925408,1,6,1,0,0,0,0,0,0,0,0,0,0,0,0,0,0,0,0,0,71,193,89,34,25,51,71,159,160,80,87,170,16,64,47,254,1,1,0,1,37,64,15,4,0,15,2,0,0,2,7,1,7,2,0,0,0,0,0,0,12,0,0,0,0,1,17,1078684996,375778174,60,16,0,2,1,0,0,0,0,0,0,0,0,0,0,0,2,0,0,-6000,0,1,0,0,2,0,0,0,0,0,0,0,0,0,0,0,0,0,0,1000,0,0,0,1000,4,0,1,1,0,2057,8708,8610,8670,8212,4540,4534,4551,4547,1394,1311,1320,1390,4994,4851,4799,4913,4995,4851,4801,4911,1,1,1,1,137506,0,0,0,0,62,-299,-294,21,4,0,0,1,1,0,3,0,0,2,0,0,0,0,0,0,0,-400,0,0,-250,0,25,0,0,0,3,0,0,0,0,0,0,0,82.79075,-43.74486,0,0,0,0,0,1,3,0,0,0,0,0,137506,992,857,1431,857,1580,1480,1600,1600,0,0,62,0,0,0,7,0,930,863,38435,0,0,6,0,0,0,0,0,-7,0,4181,4179,1,0,0,0,0,0,1808,-42,1,0,0,0,-82,3000,0,2597,3000,0,-8,3000,0,0,0,0,0,1818,0,0,2,0,0,0,0,0,0,0,0
138038,118,1,29,12428,241,236,52,0,10,0,1,0,0,0,1,4214842,0,0,0,11469,4,0,0,4,499,0,211,6,1,1,13,2835,1078684997,375778174,1359045,138038,-0.3890063,-6.722545,-15,-400,0,0,0,0,0,0,4,2,0,0,1628,1622,1626,1610,1000,0,1964,0,8358,8610,8800,8598,-4,-59,-160,-158,-96,-93,11,-1010,38,14,11,1964,-19.52506,-184,-317,-295,-297,-320,0,0.5672466,-0.3950743,1,0,1078685002,375778150,-18.871,0,5,6,30,365294600,2319,1,3,0,5,29,0.46704,-0.3701352,-1543,0,-1,3471,0,0,0,0,0,0,0,138000,375778137,1078685041,1377902,375778123,1078684977,1377871,0,41,52,12,375778145,1078685038,1378325,0,0,0,0,0,0,0,30,31,6,6,6,1,0,-1,-296,29,27,-221,-154,-221,21,-571,29,-600,0.46704,-0.3701352,0.4704798,-0.3681673,0,0,2,1,6,3,201,1,2741,-295,-296,1,20,0,0,0,0,109,-517,-1606,-10,54,-303,0.5585781,-0.3512895,-19.41842,-250,1,-295,100,7,99,318,-1906,-1896,-1858,-294,-18.96289,1377902,0,0,0,1,0,32833,32693,32954,32785,32745,33763,32794,32727,33753,32783,32763,33776,32833,32709,32756,32824,32677,32741,100,100,100,100,49,52,51,51,70,3,2,0,0,0,48,70,27,71,20,0,0,0,0,12,41,-16,-12,-17,16705,0,0,2385,0,131,2266925408,1,6,1,0,0,0,0,0,0,0,0,0,0,0,0,0,0,0,0,0,71,193,89,34,25,51,71,159,160,80,87,170,16,64,47,254,1,1,0,1,37,64,15,4,0,15,2,0,0,2,7,1,7,2,0,0,0,0,0,0,21,0,0,0,0,1,17,1078684996,375778174,60,16,0,2,1,0,0,0,0,0,0,0,0,0,0,0,2,0,0,-6000,0,1,0,0,2,0,0,0,0,0,0,0,0,0,0,0,0,0,0,1000,0,0,0,1000,4,0,1,1,0,2057,8598,8564,8800,8398,4540,4533,4551,4547,1306,1305,1364,1375,4959,4868,4841,4958,4959,4868,4840,4956,1,1,1,1,138006,0,0,0,0,62,-299,-296,15,4,0,0,1,1,0,3,0,0,2,0,0,0,0,0,0,0,-400,0,0,-250,0,26,0,0,0,3,0,0,0,0,0,0,0,82.79075,-43.74486,0,0,0,0,0,1,3,0,0,0,0,0,138006,1166,1007,2741,1007,1580,1480,1600,1600,0,0,62,0,0,0,1,0,940,862,39010,0,0,6,0,0,0,0,0,0,0,4193,4192,1,0,0,0,0,0,1952,-64,1,0,0,0,202,3000,0,2609,3000,0,21,3000,0,0,0,0,0,1963,0,0,2,0,0,0,0,0,0,0,0
138538,118,1,30,12928,241,235,52,0,10,0,1,0,0,0,1,4214842,0,0,0,11470,4,0,0,4,499,0,211,6,1,1,13,3320,1078684997,375778174,1359045,138538,-1.047474,-6.409912,-15,-400,0,0,0,0,0,0,4,2,0,0,1628,1633,1633,1600,1000,0,2104,0,8310,8614,8750,8678,-12,-58,-161,-164,-96,-94,18,-1022,12,12,0,2104,-21.01377,-200,-322,-297,-297,-320,0,0.5994976,-0.3718737,6,3,1078685004,375778153,-20.669,0,0,6,30,365295200,2319,1,3,0,5,29,0.5004,-0.343697,-1623,6,5,3471,0,0,0,0,0,0,0,138500,375778140,1078685044,1379694,375778125,1078684979,1379658,0,37,48,12,375778148,1078685040,1379809,0,0,0,0,0,0,0,30,31,6,6,6,1,7,5,-299,29,27,-222,-155,-222,-45,-593,-38,-589,0.5004,-0.343697,0.4998862,-0.3461703,7,5,6,4,6,3,201,1,2945,-297,-297,1,20,0,0,0,0,31,-507,-1619,-5,52,-305,0.5889358,-0.3847381,-20.90705,-250,0,-298,100,7,99,321,-2055,-2074,-2007,-302,-20.7489,1379694,0,0,0,1,0,32838,32743,32950,32764,32736,33753,32768,32700,33778,32789,32724,33792,32779,32745,32773,32775,32813,32795,100,100,100,100,49,52,51,51,69,4,2,0,0,0,48,70,27,71,20,0,0,0,0,12,-2,3,2,3,15677,0,0,2385,0,131,2266925408,1,6,1,0,0,0,0,0,0,0,0,0,0,0,0,0,0,0,0,0,71,193,89,34,25,51,71,159,160,80,87,170,16,64,47,254,1,1,0,1,37,64,15,4,0,15,2,0,0,2,7,1,7,2,0,0,0,0,0,0,31,0,0,0,0,1,17,1078684996,375778174,60,16,0,2,1,0,0,0,0,0,0,0,0,0,0,0,2,0,0,-6000,0,1,0,0,2,0,0,0,0,0,0,0,0,0,0,0,0,0,0,1000,0,0,0,1000,4,0,1,1,0,2057,8684,8614,8714,8350,4540,4533,4551,4547,1279,1405,1301,1394,4969,4895,4882,4995,4970,4897,4882,4995,1,1,1,1,138506,0,0,0,0,62,-299,-297,19,4,0,0,1,1,0,3,0,0,2,0,0,0,0,0,0,0,-400,0,0,-250,0,23,0,0,0,3,0,0,0,0,0,0,0,82.79075,-43.74486,0,0,0,0,0,1,3,0,0,0,0,0,138506,1193,1030,2945,1030,1580,1480,1600,1600,0,0,62,0,0,0,6,0,969,861,40215,0,0,6,0,0,0,0,0,4,0,4193,4193,1,0,0,0,0,0,2092,-31,1,0,0,0,512,3000,0,2543,3000,0,52,3000,0,0,0,0,0,2104,0,0,2,0,0,0,0,0,0,0,0
