FcTime,PowerOnCount,FlightCount,SequenceNumber,FlightTime,BatteryVoltage,AdcVoltage,CoreTemp,SelfCheckStatus,ledState,FaultFlag,ErrHandling,SoftwareVersion,ConfigCount,SimState,ProductType,ModelOnliebit1,ModelOnliebit2,FrameLoss1,FrameLoss2,RTKBit,MSDFBit,PlatBit,FCBit,SensorState,ImuTemp,ImuState,ImuUse,UseGPSState,TempState,SafeState,HeadErrFlag,AccelZAmp,HomeLongitude,HomeLatitude,HomeAltitude,SystemTime,RollControl,PitchControl,YawControl,HeightVelocityContorl,NorthVelocityHandle,EastVelocityHandle,Aileron,Elevator,Throttle,Rudder,Mode,AutoMode,RCState,Reserve2,OutputM1,OutputM2,OutputM3,OutputM4,OutputM5,OutputM6,OutputM7,OutputM8,MortorSpeed1,MortorSpeed2,MortorSpeed3,MortorSpeed4,RollAngle,PitchAngle,YawAngle,HeadingAngle,EstimateHeading,AccelX,AccelY,AccelZ,GyroRoll,GyroPitch,GyroYaw,GroundHeight,VerticalHeight,BaroHeight,BaroVelocity,GPSVelocity,VerticalVelocity,AHRSVelocity,Reserve3,NorthPosition,EastPosition,NorthVelocity,EastVelocity,CurrentLongitude,CurrentLatitude,CurrentHeight,Lon89,Lat89,GPSFix,GPSNumSV,GPSITOW,GPSWeek,GPSDiffAge,RtkDevice,PositionAccuracy,GPSHeadAccuracy,HorVelocityAccuracy,GPSNorthPos,GPSEastPos,GPSPosHead,GPSNorthVelocity,GPSEastVelocity,stationId,MainRev1,MainRev2,msg_id,sub_cmd_id,retval,from_id,rev_timestamp_ms,SystemTimeMsdf,GpsRight1,GpsRight2,GpsRightAltitude,GpsLeft1,GpsLeft2,GpsLeftAltitude,Lon_R89,Lat_R89,Lon_L89,Lat_L89,FusionGpsLoacation1,FusionGpsLoacation2,FusionGpsLoacation3,LngErr,LatErr,AltErr,GpsVelErrFlag,GpsPosErrType,GpsAltErrType,GpsUseIndex,GpsNsv1,GpsNsv2,Fixmode1,Fixmode2,GpsHeadFixmode1,GpsHeadFixmode2,UseGpsVel1,UseGpsVel2,UseGpsVel3,GpsVelAccuracy1,GpsVelAccuracy2,AccEstHead,GyroEstHead,InsEstHead,AccEuler1,AccEuler2,DelayEuler1,DelayEuler2,GpsPos1,GpsPos2,FusionPos1,FusionPos2,GpsVel1,GpsVel2,DelayVel1,DelayVel2,UseGpsState,HorizFusionSource,HorizKalmanNum,GpsValidState,Rev2,Rev3,Rev4,FlowState,FlowHealthyFactor,FlowVel1,FlowVel2,DelayVelFlow1,DelayVelFlow2,EkfEuler1,EkfEuler2,EkfEuler3,EkfVel1,EkfVel2,EkfVel3,EkfPos1,EkfPos2,EkfPos3,WindVelNE1,WindVelNE2,KaccXY1,KaccXY2,VerticalFusionSource,BaroCmpeK,AccOffsetZ,BaroCorrectHeight,GpsHeightForFusion,AhrsDelayHeightBaro,GpsPosDiffVelZ,InteVelNE1,InteVelNE2,VerticalVel_3imu1,VerticalVel_3imu2,UseVerticalVelIndex,UseNavSource,FlySafeState,Acc0_adc1,Acc0_adc2,Acc0_adc3,Acc1_adc1,Acc1_adc2,Acc1_adc3,Acc2_adc1,Acc2_adc2,Acc2_adc3,Acc3_adc1,Acc3_adc2,Acc3_adc3,Gyro0_adc1,Gyro0_adc2,Gyro0_adc3,Gyro3_adc1,Gyro3_adc2,Gyro3_adc3,Imustate1,Imustate2,Imustate3,Imustate4,ImuTemperature1,ImuTemperature2,ImuTemperature3,ImuTemperature4,S3EstVar,AccXamp,AccYamp,AccXamp2,AccYamp2,AccZamp2,BaroTemperature,FftFreq,FftAmp,FftFreq2,FftAmp2,PosFuisonQuality1,PosFuisonQuality2,PosFuisonQuality3,VelFusionQuality1,VelFusionQuality2,VelFusionQuality3,AccZErrInte1,AccZErrInte2,AccZErrInte3,Rev41,f_airX,f_airY,InsLogVersion,SensorInitState,BaroType,SystemTimeTPS,SystemSwitch,Rev1,TpsStatus,MotionStatus,ProjectID1,ProjectID2,ProjectID3,ProjectID4,ProjectID5,ProjectID6,ProjectID7,ProjectID8,ProjectID9,ProjectID10,ProjectID11,ProjectID12,ProjectID13,ProjectID14,ProjectID15,ProjectID16,MissionID1,MissionID2,MissionID3,MissionID4,MissionID5,MissionID6,MissionID7,MissionID8,MissionID9,MissionID10,MissionID11,MissionID12,MissionID13,MissionID14,MissionID15,MissionID16,MotionMode,ListType,Segment,Rev5,WpNum,WpLen,ListWpNum,ListWpRestNum,ListStartIndex,ListEndIndex,RouteStatus,NavStatus,WpIndex,WpStatus,Cmd,CmdStatus,Action,ActionStatus,RobotModeStatus,Error,NavWpIndex,NavCmd,NavWpStatus,NavMode,Rev71,Rev72,Rev73,NavError,Index,WpSegment,Type,Longitude,Latitude,Height,Speed,HeightBehavior,HeightSource,OaMode,RouteHeadType,RouteHeading,Reserved0,LoiterLongitude,LoiterLatitude,LoiterRadius,LoiterDirection,LoiterCircleCount,HoldTime,HoldBehavior,WpHeadType,WpHeading,TargetLongitude,TargetLatitude,TargetHeight,GoHomeCmd,Rev81,Rev82,Rev83,TpsRcHeightSource,TpsRcMode,TpsRcCmd,TpsRcCmdStatus,TpsRcSignalMode,TpsRcSignalStatus,Rev9,TpsRcSignal1,TpsRcSignal2,TpsRcSignal3,TpsRcSignal4,TpsRcSignal5,TpsRcSignal6,TpsRcSignal7,TpsRcSignal8,EventCode1,EventCode2,EventCode3,EventCode4,CurrEvCode,CurrEvcmdSn,CurrEvcmdSta,CurrEvEmergAct,ActiveEvCnt,Maybe_takeover,EvDataU16,Speed1,Speed2,Speed3,Speed4,OutputVolt1,OutputVolt2,OutputVolt3,OutputVolt4,OutputCurr1,OutputCurr2,OutputCurr3,OutputCurr4,CPUTemp1,CPUTemp2,CPUTemp3,CPUTemp4,MosBoardTemp1,MosBoardTemp2,MosBoardTemp3,MosBoardTemp4,XAStatus1,XAStatus2,XAStatus3,XAStatus4,SystemTimeControl,ControlX,ControlY,ControlZ,ControlR,ControlThrottle,VerticalVelocitySp,VerticalVelocity2,YawRateSp,AllStatusFlag,LandState,HeightLockFlag,PointLockFlag,TFFlag,LevelFlag,takeOffFlag,setPointLevelExtern,setPointHeightExtern,MotorState,wp_NorthSetPoint,wp_EastSetPoint,wp_NorthSetVel,wp_EastSetVel,wp_NorthSetAcc,wp_EastSetAcc,wp_VerticalSetPos,wp_VerticalSetVel,wp_VertivalSetAcc,RouteError,HeightSetPoint,TFOut,HoverError,NavUpdateCount,setSource,useSource,FlightUseHeightSource1,Rev101,Rev102,Rev103,XsenseDistance1,RollOut,PitchOut,YawOut,SetGPSPointLevelNorth1,SetGPSPointLevelEast1,Fbxxx1,Fbxxx2,Fbxxx3,Fbxxx4,Fbxxx5,Fbxxx6,Fbxxx7,Fbxxx8,Fbxxx9,Fbxxx10,Fbxxx11,Fbxxx12,SystemTimeFW,AirspeedRaw,AirSpeed,AirspeedRaw1,AirSpeed1,Servo1,Servo2,Servo3,Servo4,Fw_RollControl,Fw_PitchControl,MCThrottle,FWThrottle,TransStatus,TransToFw,Gnd_ms,Rev11,Power,Soc,Current,CaliAirSpeed,AutoType,WpState,Beta,Rev12,WindNorthSpeed,WindEastSpeed,Speed5,OutputVolt5,OutputCurr5,CPUTemp5,MosBoardTemp5,XAStatus5,CircleMode,UseLQR,LateralAccel,BearingError,CrossTrackError,TerrainHeightEstimate,TerrainCorrection,TerrainValid,ATT_Error,FwModeFailedCount,VtolFlightMode,RollBodyRateSP,RollBodyRate,RollLastOut,PitchBodyRateSP,PitchBodyRate,PitchLastOut,YawBodyRateSP,YawBodyRate,YawLastOut,RollInt,PitchInt,YawInt,DemRelativeAltitude,DemRelativeAltSP,DemVerticalVelocitySP,AirRev1,AirRev2,Cnt,Monitor1,Monitor2,FaultBit,AngleX,AngleY,AngleZ,DebugTest
230960,25,1,0,0,0,0,0,0,0,0,0,0,0,0,0,0,0,0,0,0,0,0,0,0,0,0,0,0,0,0,0,0,0,0,0,0,0,0,0,0,0,0,0,0,0,0,0,0,0,0,0,0,0,0,0,0,0,0,0,0,0,0,0,0,0,0,0,0,0,0,0,0,0,0,0,0,0,0,0,0,0,0,0,0,0,0,0,0,0,0,0,0,0,0,0,0,0,0,0,0,0,0,0,0,0,0,0,67,1,0,5046272,22452,0,0,0,0,0,0,0,0,0,0,0,0,0,0,0,0,0,0,0,0,0,0,0,0,0,0,0,0,0,0,0,0,0,0,0,0,0,0,0,0,0,0,0,0,0,0,0,0,0,0,0,0,0,0,0,0,0,0,0,0,0,0,0,0,0,0,0,0,0,0,0,0,0,0,0,0,0,0,0,0,0,0,0,0,0,0,0,0,0,0,0,0,0,0,0,0,0,0,0,0,0,0,0,0,0,0,0,0,0,0,0,0,0,0,0,0,0,0,0,0,0,0,0,0,0,0,0,0,0,0,0,0,0,0,0,0,0,0,0,0,0,0,0,0,0,0,0,0,0,0,0,0,0,0,0,0,0,0,0,0,0,0,0,0,0,0,0,0,0,0,0,0,0,0,0,0,0,0,0,0,0,0,0,0,0,0,0,0,0,0,0,0,0,0,0,0,0,0,0,0,0,0,0,0,0,0,0,0,0,0,0,0,0,0,0,0,0,0,0,0,0,0,0,0,0,0,0,0,0,0,0,0,0,0,0,0,0,0,0,0,0,0,0,0,0,0,0,0,0,0,0,0,0,0,0,0,0,0,0,0,0,0,0,0,0,0,0,0,0,0,0,0,0,0,0,0,0,0,0,0,0,0,0,0,0,0,0,0,0,0,0,0,0,0,0,0,0,0,0,0,0,0,0,0,0,0,0,0,0,0,0,0,0,0,0,0,0,0,0,0,0,0,0,0,0,0,0,0,0,0,0,0,0,0,0,0,0,0,0,0,0,0,0,0,0,0,0,0,0,0,0,0,0,0,0,0,0,0,0,0,0,0,0,0,0,0,0,0,0,0,0,0,0,0,0,0,0,0,0,0,0,0,0,0,0,0,0,0,0,0,0,0,0,0,0,0,0,0,0,0,0,0,0,0,0,0,0,0,0
231060,25,1,1,0,257,256,36,0,10,0,1,0,0,0,1,0,0,0,0,1,0,0,0,4,407,0,211,6,1,1,13,39,1137962924,229316811,18326,231032,0,0,-44,0,0,0,0,0,0,0,4,2,0,0,1190,1190,1190,1190,1000,0,0,0,0,0,0,0,-12,23,-441,-439,0,43,19,-997,0,0,-1,49,-9.492907,-53,-1,0,1,50,0,10.51343,0.8840342,0,0,1137963010,229317756,0,0,0,6,22,296249600,2294,2,3,0,7,43,10.44168,0.9524142,-4363,0,0,1467,0,0,67,1,0,5046272,23460,0,0,0,0,0,0,0,0,0,0,0,0,0,0,0,0,0,0,0,0,0,0,0,0,0,0,0,0,0,0,0,0,0,0,0,0,0,0,0,0,0,0,0,0,0,0,0,0,0,0,0,0,0,0,0,0,0,0,0,0,0,0,0,0,0,0,0,0,0,0,0,0,0,0,0,0,0,0,0,0,0,0,0,0,0,0,0,0,0,0,0,0,0,0,0,0,0,0,0,0,0,0,0,0,0,0,0,0,0,0,0,0,0,0,0,0,0,0,0,0,0,0,0,0,0,0,0,0,0,0,0,0,0,0,0,0,0,0,0,549494129,1,2,2,0,0,0,0,0,0,0,0,0,0,0,0,0,0,0,0,0,0,0,0,0,0,0,0,0,0,0,0,0,0,0,0,0,0,0,0,0,0,0,0,19,0,0,18,0,0,1,0,0,48,2,0,0,0,0,0,0,2,0,0,0,0,0,0,0,0,0,0,0,0,0,0,0,0,0,0,0,0,0,0,0,0,2,0,0,0,0,0,0,0,2,0,48,1,0,0,59,0,0,0,0,0,0,0,0,1000,0,0,0,1000,1,0,1,1,0,2057,0,0,0,0,4531,4526,4541,4541,0,0,0,0,2869,2996,2963,3157,2870,2996,2964,3159,1,1,1,1,231056,0,0,0,0,0,0,1,0,0,0,0,0,1,0,1,0,0,1,0,0,0,0,0,0,0,0,0,0,0,0,0,0,0,0,0,0,0,0,0,0,0,0,0,0,0,0,0,0,0,0,0,0,0,0,0,0,231056,-2220,0,-3665,0,1440,1480,1520,1440,0,0,0,0,0,0,0,0,17,993,667,0,0,2,0,0,0,0,0,0,0,2793,2793,1,0,0,0,0,0,77,-1367,0,0,0,0,542,3000,0,-1043,3000,0,-22,3000,0,0,0,0,0,49,0,0,0,0,0,0,0,0,0,0,0
231160,25,1,1,0,257,256,36,0,10,0,1,0,0,0,1,0,0,0,0,1,0,0,0,4,407,0,211,6,1,1,13,39,1137962924,229316811,18326,231132,0,0,-44,0,0,0,0,0,0,0,4,2,0,0,1190,1190,1190,1190,1000,0,0,0,0,0,0,0,-12,23,-441,-440,0,44,18,-997,0,0,-1,49,-9.494331,-53,0,0,1,50,0,10.51265,0.8839821,0,0,1137963010,229317756,0,0,0,6,22,296249800,2294,0,3,0,7,43,10.44168,0.9524142,-4363,0,0,1467,0,0,67,1,0,4390912,23620,0,0,0,0,0,0,0,0,0,0,0,0,0,0,0,0,0,0,0,0,0,0,0,0,0,0,0,0,0,0,0,0,0,0,0,0,0,0,0,0,0,0,0,0,0,0,0,0,0,0,0,0,0,0,0,0,0,0,0,0,0,0,0,0,0,0,0,0,0,0,0,0,0,0,0,0,0,0,0,0,0,0,0,0,0,0,0,0,0,0,0,0,0,0,0,0,0,0,0,0,0,0,0,0,0,0,0,0,0,0,0,0,0,0,0,0,0,0,0,0,0,0,0,0,0,0,0,0,0,0,0,0,0,0,0,0,0,0,0,549494129,1,2,2,0,0,0,0,0,0,0,0,0,0,0,0,0,0,0,0,0,0,0,0,0,0,0,0,0,0,0,0,0,0,0,0,0,0,0,0,0,0,0,0,19,0,0,18,0,0,1,0,0,48,2,0,0,0,0,0,0,4,0,0,0,0,0,0,0,0,0,0,0,0,0,0,0,0,0,0,0,0,0,0,0,0,2,0,0,0,0,0,0,0,2,0,48,1,0,0,59,0,0,0,0,0,0,0,0,1000,0,0,0,1000,1,0,1,1,0,2057,0,0,0,0,4531,4525,4540,4541,0,0,0,0,2869,2996,2964,3157,2870,2996,2963,3159,1,1,1,1,231156,0,0,0,0,0,0,1,0,0,0,0,0,1,0,1,0,0,1,0,0,0,0,0,0,0,0,0,0,0,0,0,0,0,0,0,0,0,0,0,0,0,0,0,0,0,0,0,0,0,0,0,0,0,0,0,0,231156,-2138,0,-3583,0,1440,1480,1520,1440,0,0,0,0,0,0,0,0,17,993,667,0,0,2,0,0,0,0,0,0,0,2793,2793,1,0,0,0,0,0,77,-1367,0,0,0,0,541,3000,0,-1043,3000,0,-22,3000,0,0,0,0,0,49,0,0,0,0,0,0,0,0,0,0,0
231260,25,1,1,0,257,256,36,0,10,0,1,0,0,0,1,0,0,0,0,1,0,0,0,4,407,0,211,6,1,1,13,39,1137962924,229316811,18326,231232,0,0,-44,0,0,0,0,0,0,0,4,2,0,0,1190,1190,1190,1190,1000,0,0,0,0,0,0,0,-12,23,-441,-440,0,44,18,-997,0,0,-1,49,-9.494509,-53,0,0,1,50,0,10.51219,0.8839379,0,0,1137963010,229317756,0,0,0,6,22,296249800,2294,0,3,0,7,43,10.44168,0.9524142,-4363,0,0,1467,0,0,13,10,1,4390912,23636,0,0,0,0,0,0,0,0,0,0,0,0,0,0,0,0,0,0,0,0,0,0,0,0,0,0,0,0,0,0,0,0,0,0,0,0,0,0,0,0,0,0,0,0,0,0,0,0,0,0,0,0,0,0,0,0,0,0,0,0,0,0,0,0,0,0,0,0,0,0,0,0,0,0,0,0,0,0,0,0,0,0,0,0,0,0,0,0,0,0,0,0,0,0,0,0,0,0,0,0,0,0,0,0,0,0,0,0,0,0,0,0,0,0,0,0,0,0,0,0,0,0,0,0,0,0,0,0,0,0,0,0,0,0,0,0,0,0,0,549494129,1,2,2,0,0,0,0,0,0,0,0,0,0,0,0,0,0,0,0,0,0,0,0,0,0,0,0,0,0,0,0,0,0,0,0,0,0,0,0,0,0,0,0,19,0,0,18,0,0,1,0,0,48,2,0,0,0,0,0,0,6,0,0,0,0,0,0,0,0,0,0,0,0,0,0,0,0,0,0,0,0,0,0,0,0,2,0,0,0,0,0,0,0,2,0,48,1,0,0,59,0,0,0,0,0,0,0,0,1000,0,0,0,1000,1,0,1,1,0,2057,0,0,0,0,4531,4525,4540,4541,0,0,0,0,2873,2993,2961,3170,2872,2993,2961,3170,1,1,1,1,231256,0,0,0,0,0,0,0,0,0,0,0,0,1,0,1,0,0,1,0,0,0,0,0,0,0,0,0,0,0,0,0,0,0,0,0,0,0,0,0,0,0,0,0,0,0,0,0,0,0,0,0,0,0,0,0,0,231256,-2082,0,-3527,0,1440,1480,1520,1440,0,0,0,0,0,0,0,0,17,993,702,0,0,2,0,0,0,0,0,0,0,2793,2793,1,0,0,0,0,0,77,-1367,0,0,0,0,541,3000,0,-1044,3000,0,-22,3000,0,0,0,0,0,49,0,0,0,0,0,0,0,0,0,0,0
231360,25,1,1,0,257,256,36,0,10,0,1,0,0,0,1,0,0,0,0,1,0,0,0,4,407,0,211,6,1,1,13,39,1137962924,229316811,18326,231332,0,0,-44,0,0,0,0,0,0,0,4,2,0,0,1190,1190,1190,1190,1000,0,0,0,0,0,0,0,-12,23,-441,-440,0,44,18,-997,0,0,-1,49,-9.494826,-53,0,0,0,50,0,10.51176,0.8838872,0,0,1137963010,229317756,0,0,0,6,22,296249800,2294,0,3,0,7,43,10.44168,0.9524142,-4363,0,0,1467,0,0,67,1,0,4390912,23868,0,0,0,0,0,0,0,0,0,0,0,0,0,0,0,0,0,0,0,0,0,0,0,0,0,0,0,0,0,0,0,0,0,0,0,0,0,0,0,0,0,0,0,0,0,0,0,0,0,0,0,0,0,0,0,0,0,0,0,0,0,0,0,0,0,0,0,0,0,0,0,0,0,0,0,0,0,0,0,0,0,0,0,0,0,0,0,0,0,0,0,0,0,0,0,0,0,0,0,0,0,0,0,0,0,0,0,0,0,0,0,0,0,0,0,0,0,0,0,0,0,0,0,0,0,0,0,0,0,0,0,0,0,0,0,0,0,0,0,549494129,1,2,2,0,0,0,0,0,0,0,0,0,0,0,0,0,0,0,0,0,0,0,0,0,0,0,0,0,0,0,0,0,0,0,0,0,0,0,0,0,0,0,0,19,0,0,18,0,0,1,0,0,48,2,0,0,0,0,0,0,8,0,0,0,0,0,0,0,0,0,0,0,0,0,0,0,0,0,0,0,0,0,0,0,0,2,0,0,0,0,0,0,0,2,0,48,1,0,0,59,0,0,0,0,0,0,0,0,1000,0,0,0,1000,1,0,1,1,0,2057,0,0,0,0,4531,4525,4540,4542,0,0,0,0,2873,2992,2961,3170,2873,2993,2960,3170,1,1,1,1,231356,0,0,0,0,0,0,0,0,0,0,0,0,1,0,1,0,0,1,0,0,0,0,0,0,0,0,0,0,0,0,0,0,0,0,0,0,0,0,0,0,0,0,0,0,0,0,0,0,0,0,0,0,0,0,0,0,231356,-2069,0,-3514,0,1440,1480,1520,1440,0,0,0,0,0,0,0,0,17,993,702,0,0,2,0,0,0,0,0,0,0,2793,2793,1,0,0,0,0,0,77,-1367,0,0,0,0,541,3000,0,-1045,3000,0,-22,3000,0,0,0,0,0,49,0,0,0,0,0,0,0,0,0,0,0
231460,25,1,1,0,257,256,36,0,10,0,1,0,0,0,1,0,0,0,0,1,0,0,0,4,407,0,211,6,1,1,13,39,1137962924,229316811,18326,231432,0,0,-44,0,0,0,0,0,0,0,4,2,0,0,1190,1190,1190,1190,1000,0,0,0,0,0,0,0,-12,23,-441,-438,0,44,18,-997,0,0,-1,49,-9.494972,-53,0,0,0,50,0,10.51161,0.8838843,0,0,1137963010,229317756,0,0,0,6,22,296249800,2294,0,3,0,7,43,10.44168,0.9524142,-4363,0,0,1467,0,0,6,48,0,5046272,228424,0,0,0,0,0,0,0,0,0,0,0,0,0,0,0,0,0,0,0,0,0,0,0,0,0,0,0,0,0,0,0,0,0,0,0,0,0,0,0,0,0,0,0,0,0,0,0,0,0,0,0,0,0,0,0,0,0,0,0,0,0,0,0,0,0,0,0,0,0,0,0,0,0,0,0,0,0,0,0,0,0,0,0,0,0,0,0,0,0,0,0,0,0,0,0,0,0,0,0,0,0,0,0,0,0,0,0,0,0,0,0,0,0,0,0,0,0,0,0,0,0,0,0,0,0,0,0,0,0,0,0,0,0,0,0,0,0,0,0,549494129,1,2,2,0,0,0,0,0,0,0,0,0,0,0,0,0,0,0,0,0,0,0,0,0,0,0,0,0,0,0,0,0,0,0,0,0,0,0,0,0,0,0,0,19,0,0,18,0,0,1,0,0,48,2,0,0,0,0,0,0,9,0,0,0,0,0,0,0,0,0,0,0,0,0,0,0,0,0,0,0,0,0,0,0,0,2,0,0,0,0,0,0,0,2,0,48,1,0,0,59,0,0,0,0,0,0,0,0,1000,0,0,0,1000,1,0,1,1,0,2057,0,0,0,0,4531,4525,4540,4542,0,0,0,0,2856,2993,2963,3171,2855,2993,2964,3171,1,1,1,1,231456,0,0,0,0,0,0,0,0,0,0,0,0,1,0,1,0,0,1,0,0,0,0,0,0,0,0,0,0,0,0,0,0,0,0,0,0,0,0,0,0,0,0,0,0,0,0,0,0,0,0,0,0,0,0,0,0,231456,-2090,0,-3535,0,1440,1480,1520,1440,0,0,0,0,0,0,0,0,17,993,702,0,0,2,0,0,0,0,0,0,0,2793,2795,1,0,0,0,0,0,77,-1367,0,0,0,0,540,3000,0,-1045,3000,0,-22,3000,0,0,0,0,0,49,0,0,0,0,0,0,0,0,0,0,0
231560,25,1,2,0,256,256,35,0,10,0,1,0,0,0,1,0,0,0,0,1,0,0,0,4,408,0,211,6,1,1,13,31,1137962924,229316811,18326,231532,0,0,-44,0,0,0,0,0,0,0,4,2,0,0,1190,1190,1190,1190,1000,0,0,0,0,0,0,0,-12,23,-441,-439,0,44,18,-997,0,0,-1,49,-9.495226,-53,0,0,0,50,0,10.51151,0.8842135,0,0,1137963010,229317756,0,0,0,6,22,296250200,2294,1,3,0,7,43,10.44168,0.9626551,-4294,0,0,1467,0,0,0,0,0,0,0,0,0,0,0,0,0,0,0,0,0,0,0,0,0,0,0,0,0,0,0,0,0,0,0,0,0,0,0,0,0,0,0,0,0,0,0,0,0,0,0,0,0,0,0,0,0,0,0,0,0,0,0,0,0,0,0,0,0,0,0,0,0,0,0,0,0,0,0,0,0,0,0,0,0,0,0,0,0,0,0,0,0,0,0,0,0,0,0,0,0,0,0,0,0,0,0,0,0,0,0,0,0,0,0,0,0,0,0,0,0,0,0,0,0,0,0,0,0,0,0,0,0,0,0,0,0,0,0,0,0,0,0,0,0,0,0,0,0,0,549494129,1,2,2,0,0,0,0,0,0,0,0,0,0,0,0,0,0,0,0,0,0,0,0,0,0,0,0,0,0,0,0,0,0,0,0,0,0,0,0,0,0,0,0,19,0,0,18,0,0,1,0,0,48,2,0,0,0,0,0,0,11,0,0,0,0,0,0,0,0,0,0,0,0,0,0,0,0,0,0,0,0,0,0,0,0,2,0,0,0,0,0,0,0,2,0,48,1,0,0,59,0,0,0,0,0,0,0,0,1000,0,0,0,1000,1,0,1,1,0,2057,0,0,0,0,4531,4525,4541,4542,0,0,0,0,2853,3012,2964,3171,2855,3010,2963,3170,1,1,1,1,231556,0,0,0,0,0,0,0,0,0,0,0,0,1,0,1,0,0,1,0,0,0,0,0,0,0,0,0,0,0,0,0,0,0,0,0,0,0,0,0,0,0,0,0,0,0,0,0,0,0,0,0,0,0,0,0,0,231556,-2111,0,-3555,0,1440,1480,1520,1440,0,0,0,0,0,0,0,0,20,993,787,0,0,2,0,0,0,0,0,0,0,2785,2785,1,0,0,0,0,0,77,-1367,0,0,0,0,540,3000,0,-1045,3000,0,-22,3000,0,0,0,0,0,49,0,0,0,0,0,0,0,0,0,0,0
231731,25,1,2,0,256,256,35,0,10,0,1,0,0,0,1,0,0,0,0,1,0,0,0,4,408,0,211,6,1,1,13,31,1137962924,229316811,18326,231632,0,0,-44,0,0,0,0,0,0,0,4,2,0,0,1190,1190,1190,1190,1000,0,0,0,0,0,0,0,-12,23,-441,-439,0,44,18,-997,0,0,-1,49,-9.495584,-53,0,0,0,50,0,10.51151,0.8868843,0,0,1137963010,229317756,0,0,0,6,22,296250200,2294,1,3,0,7,43,10.44168,0.9626551,-4294,0,0,1467,0,0,0,0,0,0,0,0,0,0,0,0,0,0,0,0,0,0,0,0,0,0,0,0,0,0,0,0,0,0,0,0,0,0,0,0,0,0,0,0,0,0,0,0,0,0,0,0,0,0,0,0,0,0,0,0,0,0,0,0,0,0,0,0,0,0,0,0,0,0,0,0,0,0,0,0,0,0,0,0,0,0,0,0,0,0,0,0,0,0,0,0,0,0,0,0,0,0,0,0,0,0,0,0,0,0,0,0,0,0,0,0,0,0,0,0,0,0,0,0,0,0,0,0,0,0,0,0,0,0,0,0,0,0,0,0,0,0,0,0,0,0,0,0,0,0,549494129,1,2,2,0,0,0,0,0,0,0,0,0,0,0,0,0,0,0,0,0,0,0,0,0,0,0,0,0,0,0,0,0,0,0,0,0,0,0,0,0,0,0,0,19,0,0,18,0,0,1,0,0,48,2,0,0,0,0,0,0,13,0,0,0,0,0,0,0,0,0,0,0,0,0,0,0,0,0,0,0,0,0,0,0,0,2,0,0,0,0,0,0,0,2,0,48,1,0,0,59,0,0,0,0,0,0,0,0,1000,0,0,0,1000,1,0,1,1,0,2057,0,0,0,0,4530,4526,4540,4541,8,1,7,1,2860,3009,2986,3167,2860,3009,2988,3166,1,1,1,1,231656,0,0,0,0,0,0,0,0,0,0,0,0,1,0,1,0,0,1,0,0,0,0,0,0,0,0,0,0,0,0,0,0,0,0,0,0,0,0,0,0,0,0,0,0,0,0,0,0,0,0,0,0,0,0,0,0,231656,-2118,0,-3563,0,1440,1480,1520,1440,0,0,0,0,0,0,0,0,20,993,787,0,0,2,0,0,0,0,0,0,0,2785,2785,1,0,0,0,0,0,77,-1367,0,0,0,0,540,3000,0,-1045,3000,0,-22,3000,0,0,0,0,0,49,0,0,0,0,0,0,0,0,0,0,0
231831,25,1,2,0,256,256,35,0,10,0,1,0,0,0,1,0,0,0,0,1,0,0,0,4,408,0,211,6,1,1,13,31,1137962924,229316811,18326,231732,0,0,-44,0,0,0,0,0,0,0,4,2,0,0,1190,1190,1190,1190,1000,0,0,0,0,0,0,0,-12,23,-441,-440,0,44,18,-997,0,0,-1,49,-9.495955,-53,0,0,0,50,0,10.5119,0.8895302,0,0,1137963010,229317756,0,0,0,6,21,296250400,2294,1,3,0,7,43,10.4528,0.9626551,-4373,0,0,1467,0,0,0,0,0,0,0,0,0,0,0,0,0,0,0,0,0,0,0,0,0,0,0,0,0,0,0,0,0,0,0,0,0,0,0,0,0,0,0,0,0,0,0,0,0,0,0,0,0,0,0,0,0,0,0,0,0,0,0,0,0,0,0,0,0,0,0,0,0,0,0,0,0,0,0,0,0,0,0,0,0,0,0,0,0,0,0,0,0,0,0,0,0,0,0,0,0,0,0,0,0,0,0,0,0,0,0,0,0,0,0,0,0,0,0,0,0,0,0,0,0,0,0,0,0,0,0,0,0,0,0,0,0,0,0,0,0,0,0,0,0,0,0,0,0,0,549494129,1,2,2,0,0,0,0,0,0,0,0,0,0,0,0,0,0,0,0,0,0,0,0,0,0,0,0,0,0,0,0,0,0,0,0,0,0,0,0,0,0,0,0,19,0,0,18,0,0,1,0,0,48,2,0,0,0,0,0,0,15,0,0,0,0,0,0,0,0,0,0,0,0,0,0,0,0,0,0,0,0,0,0,0,0,2,0,0,0,0,0,0,0,2,0,48,1,0,0,59,0,0,0,0,0,0,0,0,1000,0,0,0,1000,1,0,1,1,0,2057,0,0,0,6,4531,4526,4540,4541,67,116,95,91,2862,3009,2988,3167,2860,3009,2988,3167,1,1,1,1,231756,0,0,0,0,0,0,0,0,0,0,0,0,1,0,1,0,0,1,0,0,0,0,0,0,0,0,0,0,0,0,0,0,0,0,0,0,0,0,0,0,0,0,0,0,0,0,0,0,0,0,0,0,0,0,0,0,231756,-2133,0,-3577,0,1440,1480,1520,1440,0,0,0,0,0,0,0,0,21,993,821,0,0,2,0,0,0,0,0,0,0,2775,2775,1,0,0,0,0,0,77,-1367,0,0,0,0,542,3000,0,-1045,3000,0,-22,3000,0,0,0,0,0,49,0,0,0,0,0,0,0,0,0,0,0
231931,25,1,2,0,256,256,35,0,10,0,1,0,0,0,1,0,0,0,0,1,0,0,0,4,408,0,211,6,1,1,13,31,1137962924,229316811,18326,231832,0,0,-44,0,0,0,0,0,0,0,4,2,0,0,1190,1190,1190,1190,1000,0,0,0,138,174,104,94,-12,23,-441,-440,0,44,18,-997,0,0,-1,49,-9.495813,-53,0,0,0,50,0,10.51483,0.8910813,0,0,1137963010,229317756,0,0,0,6,21,296250400,2294,1,3,0,7,43,10.4528,0.9626551,-4373,0,0,1467,0,0,0,0,0,0,0,0,0,0,0,0,0,0,0,0,0,0,0,0,0,0,0,0,0,0,0,0,0,0,0,0,0,0,0,0,0,0,0,0,0,0,0,0,0,0,0,0,0,0,0,0,0,0,0,0,0,0,0,0,0,0,0,0,0,0,0,0,0,0,0,0,0,0,0,0,0,0,0,0,0,0,0,0,0,0,0,0,0,0,0,0,0,0,0,0,0,0,0,0,0,0,0,0,0,0,0,0,0,0,0,0,0,0,0,0,0,0,0,0,0,0,0,0,0,0,0,0,0,0,0,0,0,0,0,0,0,0,0,0,0,0,0,0,0,0,549494129,1,2,2,0,0,0,0,0,0,0,0,0,0,0,0,0,0,0,0,0,0,0,0,0,0,0,0,0,0,0,0,0,0,0,0,0,0,0,0,0,0,0,0,19,0,0,18,0,0,1,0,0,48,2,0,0,0,0,0,0,17,0,0,0,0,0,0,0,0,0,0,0,0,0,0,0,0,0,0,0,0,0,0,0,0,2,0,0,0,0,0,0,0,2,0,48,1,0,0,59,0,0,0,0,0,0,0,0,1000,0,0,0,1000,1,0,1,1,0,2057,94,174,104,138,4531,4525,4540,4542,153,235,180,133,2867,3002,3002,3159,2866,3003,3002,3159,1,1,1,1,231856,0,0,0,0,0,0,0,0,0,0,0,0,1,0,1,0,0,1,0,0,0,0,0,0,0,0,0,0,0,0,0,0,0,0,0,0,0,0,0,0,0,0,0,0,0,0,0,0,0,0,0,0,0,0,0,0,231856,-2146,0,-3590,0,1440,1480,1520,1440,0,0,0,0,0,0,0,0,21,993,821,0,0,2,0,0,0,0,0,0,0,2776,2775,1,0,0,0,0,0,77,-1367,0,0,0,0,541,3000,0,-1045,3000,0,-22,3000,0,0,0,0,0,49,0,0,0,0,0,0,0,0,0,0,0
232031,25,1,2,0,256,256,35,0,10,0,1,0,0,0,1,0,0,0,0,1,0,0,0,4,408,0,211,6,1,1,13,31,1137962924,229316811,18326,231932,0,0,-44,0,0,0,0,0,0,0,4,2,0,0,1190,1190,1190,1190,1000,0,0,0,540,644,970,956,-12,23,-441,-437,0,44,18,-997,0,0,-1,49,-9.495692,-52,5,0,0,50,0,10.51756,0.8926252,0,0,1137963011,229317756,0,0,0,6,22,296250600,2294,1,3,0,7,43,10.44168,0.9626551,-4294,0,0,1467,0,0,0,0,0,0,0,0,0,0,0,0,0,0,0,0,0,0,0,0,0,0,0,0,0,0,0,0,0,0,0,0,0,0,0,0,0,0,0,0,0,0,0,0,0,0,0,0,0,0,0,0,0,0,0,0,0,0,0,0,0,0,0,0,0,0,0,0,0,0,0,0,0,0,0,0,0,0,0,0,0,0,0,0,0,0,0,0,0,0,0,0,0,0,0,0,0,0,0,0,0,0,0,0,0,0,0,0,0,0,0,0,0,0,0,0,0,0,0,0,0,0,0,0,0,0,0,0,0,0,0,0,0,0,0,0,0,0,0,0,0,0,0,0,0,0,549494129,1,2,2,0,0,0,0,0,0,0,0,0,0,0,0,0,0,0,0,0,0,0,0,0,0,0,0,0,0,0,0,0,0,0,0,0,0,0,0,0,0,0,0,19,0,0,18,0,0,1,0,0,48,2,0,0,0,0,0,0,19,0,0,0,0,0,0,0,0,0,0,0,0,0,0,0,0,0,0,0,0,0,0,0,0,2,0,0,0,0,0,0,0,2,0,48,1,0,0,59,0,0,0,0,0,0,0,0,1000,0,0,0,1000,1,0,1,1,0,2057,956,644,970,1026,4531,4525,4540,4541,264,262,282,216,2867,3002,3002,3157,2866,3002,3002,3157,1,1,1,1,231956,0,0,0,0,0,0,0,0,0,0,0,0,1,0,1,0,0,1,0,0,0,0,0,0,0,0,0,0,0,0,0,0,0,0,0,0,0,0,0,0,0,0,0,0,0,0,0,0,0,0,0,0,0,0,0,0,231956,-2166,0,-3610,0,1440,1480,1520,1440,0,0,0,0,0,0,0,0,21,993,821,0,0,2,0,0,0,0,0,0,0,2782,2782,1,0,0,0,0,0,77,-1367,0,0,0,0,538,3000,0,-1042,3000,0,-22,3000,0,0,0,0,0,49,0,0,0,0,0,0,0,0,0,0,0
232131,25,1,3,0,256,255,35,0,10,0,1,0,0,0,1,0,0,0,0,1,0,0,0,4,408,0,211,6,1,1,13,125,1137962924,229316811,18326,232032,0,0,-44,0,0,0,0,0,0,0,4,2,0,0,1190,1190,1190,1190,1000,0,0,0,1764,1908,1692,1660,-12,23,-441,-437,0,44,18,-997,0,0,-1,49,-9.495028,-51,24,0,0,50,0,10.51638,0.893487,0,0,1137963011,229317756,0,0,0,6,22,296250600,2294,1,3,0,7,43,10.44168,0.9626551,-4294,0,0,1467,0,0,0,0,0,0,0,0,0,0,0,0,0,0,0,0,0,0,0,0,0,0,0,0,0,0,0,0,0,0,0,0,0,0,0,0,0,0,0,0,0,0,0,0,0,0,0,0,0,0,0,0,0,0,0,0,0,0,0,0,0,0,0,0,0,0,0,0,0,0,0,0,0,0,0,0,0,0,0,0,0,0,0,0,0,0,0,0,0,0,0,0,0,0,0,0,0,0,0,0,0,0,0,0,0,0,0,0,0,0,0,0,0,0,0,0,0,0,0,0,0,0,0,0,0,0,0,0,0,0,0,0,0,0,0,0,0,0,0,0,0,0,0,0,0,0,549494129,1,2,2,0,0,0,0,0,0,0,0,0,0,0,0,0,0,0,0,0,0,0,0,0,0,0,0,0,0,0,0,0,0,0,0,0,0,0,0,0,0,0,0,19,0,0,18,0,0,1,0,0,48,2,0,0,0,0,0,0,21,0,0,0,0,0,0,0,0,0,0,0,0,0,0,0,0,0,0,0,0,0,0,0,0,2,0,0,0,0,0,0,0,2,0,48,1,0,0,59,0,0,0,0,0,0,0,0,1000,0,0,0,1000,1,0,1,1,0,2057,1660,1908,1692,1764,4531,4526,4540,4541,302,179,337,316,2866,3000,3005,3178,2866,2999,3006,3180,1,1,1,1,232056,0,0,0,0,0,0,0,0,0,0,0,0,1,0,1,0,0,2,0,0,0,0,0,0,0,0,0,0,0,0,0,0,0,0,0,0,0,0,0,0,0,0,0,0,0,0,0,0,0,0,0,0,0,0,0,0,232056,-2219,0,-3664,0,1440,1480,1520,1440,0,0,0,0,0,0,0,0,25,993,993,0,0,2,0,0,0,0,0,0,0,2783,2782,1,0,0,0,0,0,77,-1367,0,0,0,0,538,3000,0,-1039,3000,0,-22,3000,0,0,0,0,0,49,0,0,0,0,0,0,0,0,0,0,0
232231,25,1,3,0,256,255,35,0,10,0,1,0,0,0,1,0,0,0,0,1,0,0,0,4,408,0,211,6,1,1,13,125,1137962924,229316811,18326,232132,0,0,-44,0,0,0,0,0,0,0,4,2,0,0,1190,1190,1190,1190,1000,0,0,0,2072,2086,2104,2122,-12,23,-441,-437,0,44,19,-997,0,0,-1,49,-9.494317,-50,45,0,0,50,0,10.51519,0.8942674,0,0,1137963011,229317756,0,0,0,6,22,296250800,2294,0,3,0,7,43,10.44168,0.9626551,-4294,0,0,1467,0,0,0,0,0,0,0,0,0,0,0,0,0,0,0,0,0,0,0,0,0,0,0,0,0,0,0,0,0,0,0,0,0,0,0,0,0,0,0,0,0,0,0,0,0,0,0,0,0,0,0,0,0,0,0,0,0,0,0,0,0,0,0,0,0,0,0,0,0,0,0,0,0,0,0,0,0,0,0,0,0,0,0,0,0,0,0,0,0,0,0,0,0,0,0,0,0,0,0,0,0,0,0,0,0,0,0,0,0,0,0,0,0,0,0,0,0,0,0,0,0,0,0,0,0,0,0,0,0,0,0,0,0,0,0,0,0,0,0,0,0,0,0,0,0,0,549494129,1,2,2,0,0,0,0,0,0,0,0,0,0,0,0,0,0,0,0,0,0,0,0,0,0,0,0,0,0,0,0,0,0,0,0,0,0,0,0,0,0,0,0,19,0,0,18,0,0,1,0,0,48,2,0,0,0,0,0,0,23,0,0,0,0,0,0,0,0,0,0,0,0,0,0,0,0,0,0,0,0,0,0,0,0,2,0,0,0,0,0,0,0,2,0,48,1,0,0,59,0,0,0,0,0,0,0,0,1000,0,0,0,1000,1,0,1,1,0,2057,2122,2086,2104,2150,4531,4525,4540,4542,94,171,169,116,2867,2999,3005,3180,2866,3000,3005,3178,1,1,1,1,232156,0,0,0,0,0,0,0,0,0,0,0,0,1,0,1,0,0,2,0,0,0,0,0,0,0,0,0,0,0,0,0,0,0,0,0,0,0,0,0,0,0,0,0,0,0,0,0,0,0,0,0,0,0,0,0,0,232156,-2310,0,-3755,0,1440,1480,1520,1440,0,0,0,0,0,0,0,0,25,993,993,0,0,2,0,0,0,0,0,0,0,2779,2779,1,0,0,0,0,0,77,-1367,0,0,0,0,537,3000,0,-1038,3000,0,-22,3000,0,0,0,0,0,49,0,0,0,0,0,0,0,0,0,0,0
232331,25,1,3,0,256,255,35,0,10,0,1,0,0,0,1,0,0,0,0,1,0,0,0,4,408,0,211,6,1,1,13,125,1137962924,229316811,18326,232232,0,0,-44,0,0,0,0,0,0,0,4,2,0,0,1190,1190,1190,1190,1000,0,0,0,2188,2156,2136,2164,-12,23,-441,-437,0,44,19,-997,0,0,-1,49,-9.493237,-50,57,0,0,50,0,10.51439,0.8947124,0,0,1137963011,229317756,0,0,0,6,22,296250800,2294,0,3,0,7,43,10.44168,0.9626551,-4294,0,0,1467,0,0,0,0,0,0,0,0,0,0,0,0,0,0,0,0,0,0,0,0,0,0,0,0,0,0,0,0,0,0,0,0,0,0,0,0,0,0,0,0,0,0,0,0,0,0,0,0,0,0,0,0,0,0,0,0,0,0,0,0,0,0,0,0,0,0,0,0,0,0,0,0,0,0,0,0,0,0,0,0,0,0,0,0,0,0,0,0,0,0,0,0,0,0,0,0,0,0,0,0,0,0,0,0,0,0,0,0,0,0,0,0,0,0,0,0,0,0,0,0,0,0,0,0,0,0,0,0,0,0,0,0,0,0,0,0,0,0,0,0,0,0,0,0,0,0,549494129,1,2,2,0,0,0,0,0,0,0,0,0,0,0,0,0,0,0,0,0,0,0,0,0,0,0,0,0,0,0,0,0,0,0,0,0,0,0,0,0,0,0,0,19,0,0,18,0,0,1,0,0,48,2,0,0,0,0,0,0,25,0,0,0,0,0,0,0,0,0,0,0,0,0,0,0,0,0,0,0,0,0,0,0,0,2,0,0,0,0,0,0,0,2,0,48,1,0,0,59,0,0,0,0,0,0,0,0,1000,0,0,0,1000,1,0,1,1,0,2057,2164,2156,2136,2188,4531,4526,4540,4541,132,111,125,109,2862,2999,2991,3181,2860,2999,2989,3181,1,1,1,1,232256,0,0,0,0,0,0,0,0,0,0,0,0,1,0,1,0,0,2,0,0,0,0,0,0,0,0,0,0,0,0,0,0,0,0,0,0,0,0,0,0,0,0,0,0,0,0,0,0,0,0,0,0,0,0,0,0,232256,-2446,0,-3891,0,1440,1480,1520,1440,0,0,0,0,0,0,0,0,25,993,993,0,0,2,0,0,0,0,0,0,0,2779,2778,1,0,0,0,0,0,77,-1367,0,0,0,0,537,3000,0,-1039,3000,0,-22,3000,0,0,0,0,0,49,0,0,0,0,0,0,0,0,0,0,0
232431,25,1,3,0,256,255,35,0,10,0,1,0,0,0,1,0,0,0,0,1,0,0,0,4,408,0,211,6,1,1,13,125,1137962924,229316811,18326,232332,0,0,-44,0,0,0,0,0,0,0,4,2,0,0,1190,1190,1190,1190,1000,0,0,0,2210,2170,2162,2182,-12,23,-441,-437,0,44,19,-997,0,0,-1,49,-9.492053,-49,67,0,0,50,0,10.51353,0.8951327,0,0,1137963011,229317756,0,0,0,6,22,296250800,2294,0,3,0,7,43,10.44168,0.9626551,-4294,0,0,1467,0,0,0,0,0,0,0,0,0,0,0,0,0,0,0,0,0,0,0,0,0,0,0,0,0,0,0,0,0,0,0,0,0,0,0,0,0,0,0,0,0,0,0,0,0,0,0,0,0,0,0,0,0,0,0,0,0,0,0,0,0,0,0,0,0,0,0,0,0,0,0,0,0,0,0,0,0,0,0,0,0,0,0,0,0,0,0,0,0,0,0,0,0,0,0,0,0,0,0,0,0,0,0,0,0,0,0,0,0,0,0,0,0,0,0,0,0,0,0,0,0,0,0,0,0,0,0,0,0,0,0,0,0,0,0,0,0,0,0,0,0,0,0,0,0,0,549494129,1,2,2,0,0,0,0,0,0,0,0,0,0,0,0,0,0,0,0,0,0,0,0,0,0,0,0,0,0,0,0,0,0,0,0,0,0,0,0,0,0,0,0,19,0,0,18,0,0,1,0,0,48,2,0,0,0,0,0,0,27,0,0,0,0,0,0,0,0,0,0,0,0,0,0,0,0,0,0,0,0,0,0,0,0,2,0,0,0,0,0,0,0,2,0,48,1,0,0,59,0,0,0,0,0,0,0,0,1000,0,0,0,1000,8,0,1,1,0,2057,2194,2170,2162,2222,4532,4526,4540,4542,117,106,78,62,2860,2999,2991,3181,2862,2999,2989,3182,1,1,1,1,232356,0,0,0,0,0,0,0,0,0,0,0,0,1,0,1,0,0,2,0,0,0,0,0,0,0,0,0,0,0,0,0,0,0,0,0,0,0,0,0,0,0,0,0,0,0,0,0,0,0,0,0,0,0,0,0,0,232356,-2589,0,-4034,0,1440,1480,1520,1440,0,0,0,0,0,0,0,0,58,993,2294,0,0,2,0,0,0,0,0,0,0,2776,2775,1,0,0,0,0,0,77,-1367,0,0,0,0,538,3000,0,-1039,3000,0,-22,3000,0,0,0,0,0,49,0,0,0,0,0,0,0,0,0,0,0
232531,25,1,3,0,256,255,35,0,10,0,1,0,0,0,1,0,0,0,0,1,0,0,0,4,408,0,211,6,1,1,13,125,1137962924,229316811,18326,232432,0,0,-44,0,0,0,0,0,0,0,4,2,0,0,1190,1190,1190,1190,1000,0,0,0,2226,2180,2166,2198,-12,23,-440,-436,0,44,19,-997,0,0,-1,49,-9.492725,-48,74,-1,0,50,0,10.51308,0.8952676,0,0,1137963011,229317756,0,0,0,6,22,296250800,2294,0,3,0,7,43,10.44168,0.9626551,-4294,0,0,1467,0,0,0,0,0,0,0,0,0,0,0,0,0,0,0,0,0,0,0,0,0,0,0,0,0,0,0,0,0,0,0,0,0,0,0,0,0,0,0,0,0,0,0,0,0,0,0,0,0,0,0,0,0,0,0,0,0,0,0,0,0,0,0,0,0,0,0,0,0,0,0,0,0,0,0,0,0,0,0,0,0,0,0,0,0,0,0,0,0,0,0,0,0,0,0,0,0,0,0,0,0,0,0,0,0,0,0,0,0,0,0,0,0,0,0,0,0,0,0,0,0,0,0,0,0,0,0,0,0,0,0,0,0,0,0,0,0,0,0,0,0,0,0,0,0,0,549494129,1,2,2,0,0,0,0,0,0,0,0,0,0,0,0,0,0,0,0,0,0,0,0,0,0,0,0,0,0,0,0,0,0,0,0,0,0,0,0,0,0,0,0,19,0,0,17,0,0,1,0,0,49,2,0,0,0,0,0,0,29,0,0,0,0,0,0,0,0,0,0,0,0,0,0,0,0,0,0,0,0,0,0,0,0,2,0,0,0,0,0,0,0,2,1,48,0,3,1,61,0,0,124,0,0,0,0,0,1000,0,0,0,1000,8,0,1,1,0,2057,2198,2180,2166,2226,4531,4525,4540,4541,84,110,149,62,2867,3002,3010,3170,2866,3003,3012,3171,1,1,1,1,232456,0,0,124,0,0,0,0,0,0,0,0,0,1,0,1,0,0,2,0,0,0,0,0,0,0,0,0,0,0,0,0,0,0,0,0,0,0,0,0,0,0,0,0,0,0,0,0,0,0,0,0,0,0,0,0,0,232456,-2718,0,-4163,0,1440,1480,1520,1440,0,0,0,0,0,0,0,0,58,993,2294,0,0,2,0,0,0,0,0,0,0,2775,2776,1,0,0,0,0,0,77,-1367,0,0,0,0,538,3000,0,-1039,3000,0,-22,3000,0,0,0,0,0,49,0,0,0,0,0,0,0,0,0,0,0
232631,25,1,4,0,256,255,35,0,10,0,1,0,0,0,1,0,0,0,0,1,0,0,0,4,409,0,211,6,1,1,13,445,1137962924,229316811,18326,232532,0,0,-44,0,0,0,0,0,0,0,4,2,0,0,1190,1190,1190,1190,1000,0,0,0,2226,2178,2174,2198,-12,23,-440,-437,0,43,18,-997,0,0,-1,49,-9.493563,-48,73,0,0,50,0,10.51298,0.8953209,0,0,1137963011,229317756,0,0,0,6,22,296251200,2294,1,3,0,7,42,10.4528,0.9626551,-4373,-1,0,1467,0,0,0,0,0,0,0,0,0,0,0,0,0,0,0,0,0,0,0,0,0,0,0,0,0,0,0,0,0,0,0,0,0,0,0,0,0,0,0,0,0,0,0,0,0,0,0,0,0,0,0,0,0,0,0,0,0,0,0,0,0,0,0,0,0,0,0,0,0,0,0,0,0,0,0,0,0,0,0,0,0,0,0,0,0,0,0,0,0,0,0,0,0,0,0,0,0,0,0,0,0,0,0,0,0,0,0,0,0,0,0,0,0,0,0,0,0,0,0,0,0,0,0,0,0,0,0,0,0,0,0,0,0,0,0,0,0,0,0,0,0,0,0,0,0,0,549494129,1,2,2,0,0,0,0,0,0,0,0,0,0,0,0,0,0,0,0,0,0,0,0,0,0,0,0,0,0,0,0,0,0,0,0,0,0,0,0,0,0,0,0,19,0,0,17,0,0,1,0,0,49,2,0,0,0,0,0,0,31,0,0,0,0,0,0,0,0,0,0,0,0,0,0,0,0,0,0,0,0,0,0,0,0,2,0,0,0,0,0,0,0,2,1,48,0,3,1,64,0,0,164,0,0,0,0,0,1000,0,0,0,1000,8,0,1,1,0,2057,2202,2178,2174,2226,4530,4526,4541,4541,128,101,127,76,2866,3002,3010,3170,2866,3003,3012,3170,1,1,1,1,232556,0,0,176,0,0,0,0,0,0,0,0,0,1,0,1,0,0,2,0,0,0,0,0,0,0,0,0,0,0,0,0,0,0,0,0,0,0,0,0,0,0,0,0,0,0,0,0,0,0,0,0,0,0,0,0,0,232556,-2861,0,-4306,0,1440,1480,1520,1440,0,0,0,0,0,0,0,0,47,993,1866,0,0,2,0,0,0,0,0,0,0,2775,2776,1,0,0,0,0,0,77,-1367,0,0,0,0,539,3000,0,-1040,3000,0,-22,3000,0,0,0,0,0,49,0,0,0,0,0,0,0,0,0,0,0
232731,25,1,4,0,256,255,35,0,10,0,1,0,0,0,1,0,0,0,0,1,0,0,0,4,409,0,211,6,1,1,13,445,1137962924,229316811,18326,232632,0,0,-44,0,0,0,0,0,0,0,4,2,0,0,1190,1190,1190,1190,1000,0,0,0,2232,2178,2176,2204,-12,23,-440,-437,0,43,18,-997,0,0,-1,49,-9.494222,-48,53,0,0,50,0,10.51559,0.895252,0,0,1137963011,229317756,0,0,0,6,22,296251200,2294,1,3,0,7,42,10.4528,0.9626551,-4373,-1,0,1467,0,0,0,0,0,0,0,0,0,0,0,0,0,0,0,0,0,0,0,0,0,0,0,0,0,0,0,0,0,0,0,0,0,0,0,0,0,0,0,0,0,0,0,0,0,0,0,0,0,0,0,0,0,0,0,0,0,0,0,0,0,0,0,0,0,0,0,0,0,0,0,0,0,0,0,0,0,0,0,0,0,0,0,0,0,0,0,0,0,0,0,0,0,0,0,0,0,0,0,0,0,0,0,0,0,0,0,0,0,0,0,0,0,0,0,0,0,0,0,0,0,0,0,0,0,0,0,0,0,0,0,0,0,0,0,0,0,0,0,0,0,0,0,0,0,0,549494129,1,2,2,0,0,0,0,0,0,0,0,0,0,0,0,0,0,0,0,0,0,0,0,0,0,0,0,0,0,0,0,0,0,0,0,0,0,0,0,0,0,0,0,19,0,0,17,0,0,1,0,0,49,2,0,0,0,0,0,0,33,0,0,0,0,0,0,0,0,0,0,0,0,0,0,0,0,0,0,0,0,0,0,0,0,2,0,0,0,0,0,0,0,2,1,48,0,3,1,67,0,0,184,0,0,0,0,0,1000,0,0,0,1000,8,0,1,1,0,2057,2204,2178,2176,2232,4531,4526,4540,4541,105,118,112,119,2860,3014,2988,3170,2860,3014,2986,3170,1,1,1,1,232656,0,0,184,0,0,0,0,0,0,0,0,0,1,0,1,0,0,2,0,0,0,0,0,0,0,0,0,0,0,0,0,0,0,0,0,0,0,0,0,0,0,0,0,0,0,0,0,0,0,0,0,0,0,0,0,0,232656,-2991,0,-4436,0,1440,1480,1520,1440,0,0,0,0,0,0,0,0,47,993,1866,0,0,2,0,0,0,0,0,0,0,2779,2778,1,0,0,0,0,0,77,-1367,0,0,0,0,538,3000,0,-1038,3000,0,-22,3000,0,0,0,0,0,49,0,0,0,0,0,0,0,0,0,0,0
232831,25,1,4,0,256,255,35,0,10,0,1,0,0,0,1,0,0,0,0,1,0,0,0,4,409,0,211,6,1,1,13,445,1137962924,229316811,18326,232732,0,0,-44,0,0,0,0,0,0,0,4,2,0,0,1190,1190,1190,1190,1000,0,0,0,2230,2178,2172,2198,-12,23,-440,-435,0,43,18,-997,0,0,-1,49,-9.494826,-48,38,1,0,50,0,10.51813,0.8951685,0,0,1137963011,229317756,0,0,0,6,21,296251400,2294,1,3,0,7,42,10.4528,0.9626551,-4373,0,1,1467,0,0,0,0,0,0,0,0,0,0,0,0,0,0,0,0,0,0,0,0,0,0,0,0,0,0,0,0,0,0,0,0,0,0,0,0,0,0,0,0,0,0,0,0,0,0,0,0,0,0,0,0,0,0,0,0,0,0,0,0,0,0,0,0,0,0,0,0,0,0,0,0,0,0,0,0,0,0,0,0,0,0,0,0,0,0,0,0,0,0,0,0,0,0,0,0,0,0,0,0,0,0,0,0,0,0,0,0,0,0,0,0,0,0,0,0,0,0,0,0,0,0,0,0,0,0,0,0,0,0,0,0,0,0,0,0,0,0,0,0,0,0,0,0,0,0,549494129,1,2,2,0,0,0,0,0,0,0,0,0,0,0,0,0,0,0,0,0,0,0,0,0,0,0,0,0,0,0,0,0,0,0,0,0,0,0,0,0,0,0,0,19,0,0,17,0,0,1,0,0,49,2,0,0,0,0,0,0,34,0,0,0,0,0,0,0,0,0,0,0,0,0,0,0,0,0,0,0,0,0,0,0,0,2,0,0,0,0,0,0,0,2,1,48,0,3,1,71,0,0,192,0,0,0,0,0,1000,0,0,0,1000,8,0,1,1,0,2057,2202,2178,2170,2230,4532,4525,4540,4542,94,103,97,83,2862,3014,2986,3170,2860,3014,2988,3171,1,1,1,1,232756,0,0,192,0,0,0,0,0,0,0,0,0,1,0,1,0,0,2,0,0,0,0,0,0,0,0,0,0,0,0,0,0,0,0,0,0,0,0,0,0,0,0,0,0,0,0,0,0,0,0,0,0,0,0,0,0,232756,-3100,0,-4544,0,1440,1480,1520,1440,0,0,0,0,0,0,0,0,47,993,1866,0,0,2,0,0,0,0,0,0,0,2778,2779,1,0,0,0,0,0,77,-1367,0,0,0,0,541,3000,0,-1041,3000,0,-22,3000,0,0,0,0,0,49,0,0,0,0,0,0,0,0,0,0,0
232931,25,1,4,0,256,255,35,0,10,0,1,0,0,0,1,0,0,0,0,1,0,0,0,4,409,0,211,6,1,1,13,445,1137962924,229316811,18326,232832,0,0,-44,0,0,0,0,0,0,0,4,2,0,0,1190,1190,1190,1190,1000,0,0,0,2226,2182,2172,2204,-12,23,-440,-435,0,43,18,-997,0,0,-1,49,-9.494855,-48,24,1,0,50,0,10.51954,0.8951418,0,0,1137963011,229317756,0,0,0,6,21,296251400,2294,1,3,0,7,42,10.4528,0.9626551,-4373,0,1,1467,0,0,0,0,0,0,0,0,0,0,0,0,0,0,0,0,0,0,0,0,0,0,0,0,0,0,0,0,0,0,0,0,0,0,0,0,0,0,0,0,0,0,0,0,0,0,0,0,0,0,0,0,0,0,0,0,0,0,0,0,0,0,0,0,0,0,0,0,0,0,0,0,0,0,0,0,0,0,0,0,0,0,0,0,0,0,0,0,0,0,0,0,0,0,0,0,0,0,0,0,0,0,0,0,0,0,0,0,0,0,0,0,0,0,0,0,0,0,0,0,0,0,0,0,0,0,0,0,0,0,0,0,0,0,0,0,0,0,0,0,0,0,0,0,0,0,549494129,1,2,2,0,0,0,0,0,0,0,0,0,0,0,0,0,0,0,0,0,0,0,0,0,0,0,0,0,0,0,0,0,0,0,0,0,0,0,0,0,0,0,0,19,0,0,17,0,0,1,0,0,49,2,0,0,0,0,0,0,36,0,0,0,0,0,0,0,0,0,0,0,0,0,0,0,0,0,0,0,0,0,0,0,0,2,0,0,0,0,0,0,0,2,1,48,0,3,1,74,0,0,208,0,0,0,0,0,1000,0,0,0,1000,8,0,1,1,0,2057,2204,2182,2172,2226,4531,4525,4540,4542,105,108,120,153,2879,3010,2984,3168,2879,3010,2985,3168,1,1,1,1,232856,0,0,208,0,0,0,0,0,0,0,0,0,1,0,1,0,0,2,0,0,0,0,0,0,0,0,0,0,0,0,0,0,0,0,0,0,0,0,0,0,0,0,0,0,0,0,0,0,0,0,0,0,0,0,0,0,232856,-3162,0,-4606,0,1440,1480,1520,1440,0,0,0,0,0,0,0,0,46,993,1832,0,0,2,0,0,0,0,0,0,0,2778,2779,1,0,0,0,0,0,77,-1367,0,0,0,0,541,3000,0,-1040,3000,0,-22,3000,0,0,0,0,0,49,0,0,0,0,0,0,0,0,0,0,0
233031,25,1,4,0,256,255,35,0,10,0,1,0,0,0,1,0,0,0,0,1,0,0,0,4,409,0,211,6,1,1,13,445,1137962924,229316811,18326,232932,0,0,-44,0,0,0,0,0,0,0,4,2,0,0,1190,1190,1190,1190,1000,0,0,0,2228,2182,2176,2198,-12,23,-440,-436,0,43,18,-997,0,0,-1,49,-9.494594,-48,11,1,0,50,0,10.52081,0.8951548,0,0,1137963011,229317757,0,0,0,6,22,296251600,2294,1,3,0,7,42,10.4528,0.9626551,-4373,0,0,1467,0,0,0,0,0,0,0,232999,229317760,1137963049,27818,229317723,1137963007,27838,0,0,0,0,229317766,1137963042,27818,0,0,0,0,227,10,0,22,22,6,6,6,6,0,0,1,42,41,-436,-436,-436,-92,249,-121,240,10.4528,0.9626551,10.44951,0.9644146,0,0,0,0,6,3,1,1,-4647,1,0,3,20,0,0,0,0,249,-108,-4401,2,0,1,10.4532,0.962745,-9.493741,0,0,100,100,7,1,-159,-209,-229,-230,2,-9.491329,27818,-3,-3,0,1,0,0,0,0,0,0,0,0,0,0,0,0,0,0,0,0,0,0,0,0,0,0,0,0,0,0,0,0,0,0,0,0,0,0,0,0,0,0,0,0,0,0,0,0,0,0,0,0,0,0,0,0,0,549494129,1,2,2,0,0,0,0,0,0,0,0,0,0,0,0,0,0,0,0,0,0,0,0,0,0,0,0,0,0,0,0,0,0,0,0,0,0,0,0,0,0,0,0,19,0,0,17,0,0,1,0,0,49,2,0,0,0,0,0,0,38,0,0,0,0,0,0,0,0,0,0,0,0,0,0,0,0,0,0,0,0,0,0,0,0,2,0,0,0,0,0,0,0,2,1,48,0,3,1,77,0,0,212,0,0,0,0,0,1000,0,0,0,1000,8,0,1,1,0,2057,2204,2182,2180,2226,4531,4525,4540,4542,86,112,114,109,2879,3012,2985,3167,2880,3010,2984,3168,1,1,1,1,232956,0,0,212,0,0,0,0,0,0,0,0,0,1,0,1,0,0,2,0,0,0,0,0,0,0,0,0,0,0,0,0,0,0,0,0,0,0,0,0,0,0,0,0,0,0,0,0,0,0,0,0,0,0,0,0,0,232956,-3197,0,-4642,0,1440,1480,1520,1440,0,0,0,0,0,0,0,0,46,993,1832,0,0,2,0,0,0,0,0,0,0,2776,2775,1,0,0,0,0,0,77,-1367,0,0,0,0,539,3000,0,-1039,3000,0,-22,3000,0,0,0,0,0,49,0,0,0,0,0,0,0,0,0,0,0
233131,25,1,5,72,256,256,36,0,10,0,1,0,0,0,1,0,0,0,0,2,0,0,0,4,409,0,211,6,1,1,13,351,1137963011,229317757,27818,233032,0.2,-0.4,-44,0,0,0,0,0,0,0,4,2,0,0,1190,1190,1190,1190,1000,0,0,0,2226,2182,2180,2202,-12,23,-440,-436,-691,43,18,-997,0,0,-2,49,-9.493311,-48,1,1,0,50,0,10.52152,0.8952338,0,0,1137963011,229317757,0,0,0,6,22,296251600,2294,1,3,0,7,42,10.4528,0.9626551,-4373,0,0,1467,0,0,0,0,0,0,0,233100,229317760,1137963049,27818,229317723,1137963007,27838,0,0,0,0,229317766,1137963042,27817,0,0,0,0,227,10,0,22,22,6,6,6,6,0,0,1,42,41,-437,-437,-437,-106,238,-121,239,10.4528,0.9626551,10.4502,0.9644958,0,0,0,0,6,3,1,1,-4649,1,0,3,20,0,0,0,0,250,-108,-4400,11,0,1,10.46024,0.9630205,-9.492334,0,0,100,100,7,1,-157,-208,-229,-230,2,-9.491329,27818,-3,-3,0,1,0,0,0,0,0,0,0,0,0,0,0,0,0,0,0,0,0,0,0,0,0,0,0,0,0,0,0,0,0,0,0,0,0,0,0,0,0,0,0,0,0,0,0,0,0,0,0,0,0,0,0,0,0,549494129,1,16,2,0,0,0,0,0,0,0,0,0,0,0,0,0,0,0,0,0,0,0,0,0,0,0,0,0,0,0,0,0,0,0,0,0,0,0,0,1,0,0,0,19,0,0,17,0,0,1,0,0,49,2,0,0,0,0,0,0,40,0,0,0,0,0,0,0,0,0,0,0,0,0,0,0,0,0,0,0,0,0,0,0,0,2,0,0,0,0,0,0,0,2,1,48,0,3,1,80,0,0,212,0,0,0,0,0,1000,0,0,0,1000,8,0,1,1,0,2057,2202,2182,2180,2226,4532,4525,4539,4542,84,101,98,97,2881,3010,2978,3166,2883,3010,2978,3164,1,1,1,1,233056,0,0,212,0,6,0,0,0,0,0,0,0,1,0,1,0,0,2,0,0,0,0,0,0,0,0,0,0,0,0,0,0,0,0,1,0,0,0,0,0,0,0,1052.104,89.51747,0,0,0,0,0,0,0,0,0,0,0,0,233056,-3206,0,-4652,0,1440,1480,1520,1440,0,0,6,0,0,0,0,0,46,993,1832,0,0,16,0,0,0,0,0,0,0,2775,2775,1,0,0,0,0,0,77,-1367,0,0,0,0,540,3000,0,-1037,3000,0,-22,3000,0,0,0,0,0,49,0,0,0,0,0,0,0,0,0,0,0
233232,25,1,5,72,256,256,36,0,10,0,1,0,0,0,1,0,0,0,0,2,0,0,0,4,409,0,211,6,1,1,13,351,1137963011,229317757,27818,233132,0.25,-0.6500001,-44,0,0,0,0,0,0,0,4,2,0,0,1190,1190,1190,1190,1000,0,0,0,2230,2178,2172,2198,-12,23,-440,-438,-577,43,17,-996,0,0,-2,49,-9.492186,-47,6,0,0,50,0,10.52218,0.89535,0,0,1137963011,229317757,-0.008,0,0,6,22,296251800,2294,1,3,0,7,42,10.4528,0.9626551,-4373,0,0,1467,0,0,0,0,0,0,0,233199,229317760,1137963049,27826,229317723,1137963007,27843,0,0,0,0,229317766,1137963042,27817,0,0,0,0,227,10,0,22,22,6,6,6,6,0,0,1,42,41,-437,-437,-437,-104,240,-122,239,10.4528,0.9626551,10.45063,0.9645864,0,0,0,0,6,3,1,1,-4620,0,0,3,20,0,0,0,0,249,-108,-4400,16,0,2,10.46914,0.9630666,-9.492819,0,0,100,100,7,1,-157,-205,-230,-230,-4,-9.499346,27826,-3,-3,0,1,0,0,0,0,0,0,0,0,0,0,0,0,0,0,0,0,0,0,0,0,0,0,0,0,0,0,0,0,0,0,0,0,0,0,0,0,0,0,0,0,0,0,0,0,0,0,0,0,0,0,0,0,0,549494129,1,16,2,0,0,0,0,0,0,0,0,0,0,0,0,0,0,0,0,0,0,0,0,0,0,0,0,0,0,0,0,0,0,0,0,0,0,0,0,1,0,0,0,19,0,0,17,0,0,1,0,0,49,2,0,0,0,0,0,0,42,0,0,0,0,0,0,0,0,0,0,0,0,0,0,0,0,0,0,0,0,0,0,0,0,2,0,0,0,0,0,0,0,2,1,48,0,3,1,84,0,0,212,0,0,0,0,0,1000,0,0,0,1000,8,0,1,1,0,2057,2202,2178,2176,2230,4531,4526,4540,4543,126,118,96,72,2881,3010,2978,3166,2881,3012,2978,3166,1,1,1,1,233156,0,0,212,0,9,0,0,0,0,0,0,0,1,0,1,0,0,2,0,0,0,0,0,0,0,0,0,0,0,0,0,0,0,0,1,0,0,0,0,0,0,0,1052.104,89.51747,0,0,0,0,0,0,0,0,0,0,0,0,233156,-3191,0,-4642,0,1440,1480,1520,1440,0,0,9,0,0,0,0,0,48,993,1883,0,0,16,0,0,0,0,0,0,0,2776,2775,1,0,0,0,0,0,77,-1367,0,0,0,0,541,3000,0,-1036,3000,0,-22,3000,0,0,0,0,0,49,0,0,0,0,0,0,0,0,0,0,0
233333,25,1,5,72,256,256,36,0,10,0,1,0,0,0,1,0,0,0,0,2,0,0,0,4,409,0,211,6,1,1,13,351,1137963011,229317757,27818,233333,0.35,-0.7500001,-44,0,0,0,0,0,0,0,4,2,0,0,1190,1190,1203,1190,1000,0,0,0,2226,2182,2170,2198,-12,23,-440,-436,-419,43,17,-996,0,0,-2,49,-9.494317,-47,9,1,0,50,0,10.52284,0.8954523,0,0,1137963011,229317757,-0.008,0,0,6,22,296251800,2294,1,3,0,7,42,10.4528,0.9626551,-4373,0,0,1467,0,0,0,0,0,0,0,233299,229317760,1137963049,27826,229317723,1137963007,27843,0,0,0,0,229317766,1137963042,27819,0,0,0,0,227,10,0,22,22,6,6,6,6,0,0,1,42,41,-437,-437,-437,-105,248,-122,238,10.4528,0.9626551,10.45096,0.9646486,0,0,0,0,6,3,1,1,-4589,0,0,3,20,0,0,0,0,249,-108,-4401,25,0,2,10.4903,0.963441,-9.493872,0,0,100,100,7,1,-156,-203,-230,-230,-4,-9.499346,27826,-3,-3,0,1,0,0,0,0,0,0,0,0,0,0,0,0,0,0,0,0,0,0,0,0,0,0,0,0,0,0,0,0,0,0,0,0,0,0,0,0,0,0,0,0,0,0,0,0,0,0,0,0,0,0,0,0,0,549494129,1,16,2,0,0,0,0,0,0,0,0,0,0,0,0,0,0,0,0,0,0,0,0,0,0,0,0,0,0,0,0,0,0,0,0,0,0,0,0,1,0,0,0,19,0,0,17,0,0,1,0,0,49,2,0,0,0,0,0,0,46,0,0,0,0,0,0,0,0,0,0,0,0,0,0,0,0,0,0,0,0,0,0,0,0,2,0,0,0,0,0,0,0,2,1,48,0,3,1,90,0,0,204,0,0,0,0,0,1000,0,0,0,1000,8,0,1,1,0,2057,2198,2182,2178,2230,4531,4525,4541,4543,124,110,99,128,2887,3016,2978,3156,2887,3017,2978,3156,1,1,1,1,233257,0,0,212,0,12,0,0,0,0,0,0,1,1,0,1,0,0,2,0,0,0,0,0,0,0,0,0,0,0,0,0,0,0,0,1,0,0,0,0,0,0,0,1052.227,89.53698,0,0,0,0,0,0,0,0,0,0,0,0,233257,-3157,0,-4611,0,1440,1480,1520,1440,0,0,12,0,0,0,0,0,48,993,1883,0,0,16,0,0,0,0,0,0,0,2775,2775,1,0,0,0,0,0,77,-1367,0,0,0,0,542,3000,0,-1036,3000,0,-22,3000,0,0,0,0,0,49,0,0,0,0,0,0,0,0,0,0,0
233433,25,1,5,72,256,256,36,0,10,0,1,0,0,0,1,0,0,0,0,2,0,0,0,4,409,0,211,6,1,1,13,351,1137963011,229317757,27818,233432,0.3,-0.8000001,-44,0,0,0,0,0,0,0,4,2,0,0,1190,1190,1234,1190,1000,0,0,0,2226,2186,2198,2202,-12,23,-439,-436,-754,43,17,-996,0,0,-2,49,-9.494246,-47,15,1,0,50,0,10.52303,0.8954236,0,0,1137963011,229317757,-0.006,0,0,6,22,296252000,2294,2,3,0,7,42,10.4528,0.9626551,-4373,0,1,1467,0,0,0,0,0,0,0,233400,229317760,1137963049,27824,229317723,1137963007,27840,0,0,0,0,229317766,1137963042,27819,0,0,0,0,227,10,0,22,22,6,6,6,6,0,1,1,42,40,-437,-437,-437,-102,254,-123,238,10.4528,0.9626551,10.45119,0.9646614,0,1,0,0,6,3,1,1,-4559,1,0,3,20,0,0,0,0,245,-103,-4400,24,0,2,10.48519,0.9633424,-9.494165,0,0,100,100,7,1,-156,-202,-230,-230,1,-9.497271,27824,-3,-3,0,1,0,32762,32772,32898,32773,32847,33780,32804,32835,33775,32789,32834,33758,32771,32768,32764,32775,32770,32773,100,100,100,100,38,42,42,43,355,0,0,0,0,1,29,45,2,45,2,0,0,0,0,24,2,1,1,1,15420,0,0,1754,0,131,549494129,1,16,2,0,0,0,0,0,0,0,0,0,0,0,0,0,0,0,0,0,0,0,0,0,0,0,0,0,0,0,0,0,0,0,0,0,0,0,0,1,0,0,0,19,0,0,17,0,0,1,0,0,49,2,0,0,0,0,0,0,48,0,0,0,0,0,0,0,0,0,0,0,0,0,0,0,0,0,0,0,0,0,0,0,0,2,0,0,0,0,0,0,0,2,1,48,0,3,1,94,0,0,192,0,0,0,0,0,1000,0,0,0,1000,8,0,1,1,0,2057,2198,2182,2174,2230,4531,4525,4540,4541,82,118,106,113,2887,3016,2978,3156,2887,3017,2978,3154,1,1,1,1,233356,0,0,196,0,15,0,0,0,0,0,0,1,1,0,1,0,0,2,0,0,0,0,0,0,0,0,0,0,0,0,0,0,0,0,1,0,0,0,0,0,0,0,1052.227,89.53698,0,0,0,0,0,0,0,0,0,0,0,0,233356,-3129,0,-4574,0,1440,1480,1520,1440,0,0,15,0,0,0,0,0,47,993,1849,0,0,16,0,0,0,0,0,0,0,2772,2772,1,0,0,0,0,0,77,-1367,0,0,0,0,543,3000,0,-1035,3000,0,-22,3000,0,0,0,0,0,49,0,0,0,0,0,0,0,0,0,0,0
233533,25,1,5,72,256,256,36,0,10,0,1,0,0,0,1,0,0,0,0,2,0,0,0,4,409,0,211,6,1,1,13,351,1137963011,229317757,27818,233432,0.3,-0.8000001,-44,0,0,0,0,0,0,0,4,2,0,0,1190,1190,1234,1190,1000,0,0,0,2226,2186,2198,2202,-12,23,-439,-436,-754,43,17,-996,0,0,-2,49,-9.494246,-47,15,1,0,50,0,10.52303,0.8954236,0,0,1137963011,229317757,-0.006,0,0,6,22,296252000,2294,2,3,0,7,42,10.4528,0.9626551,-4373,0,1,1467,0,0,0,0,0,0,0,233499,229317760,1137963049,27824,229317723,1137963007,27840,0,0,0,0,229317766,1137963042,27819,0,0,0,0,227,10,0,22,22,6,6,6,6,0,1,1,42,40,-437,-437,-437,-97,259,-123,238,10.4528,0.9626551,10.45137,0.9646043,0,1,0,0,6,3,1,1,-4541,1,0,3,20,0,0,0,0,246,-105,-4398,32,0,3,10.51393,0.9638007,-9.494047,0,0,100,100,7,1,-155,-201,-230,-230,1,-9.497271,27824,-3,-3,0,1,0,32762,32772,32898,32773,32847,33780,32804,32835,33775,32789,32834,33758,32771,32768,32764,32775,32770,32773,100,100,100,100,38,42,42,43,355,0,0,0,0,1,29,45,2,45,2,0,0,0,0,24,2,1,1,1,15420,0,0,1754,0,131,549494129,1,16,2,0,0,0,0,0,0,0,0,0,0,0,0,0,0,0,0,0,0,0,0,0,0,0,0,0,0,0,0,0,0,0,0,0,0,0,0,1,0,0,0,19,0,0,17,0,0,1,0,0,49,2,0,0,0,0,0,0,48,0,0,0,0,0,0,0,0,0,0,0,0,0,0,0,0,0,0,0,0,0,0,0,0,2,0,0,0,0,0,0,0,2,1,48,0,3,1,94,0,0,192,0,0,0,0,0,1000,0,0,0,1000,8,0,1,1,0,2057,2202,2186,2198,2226,4531,4525,4540,4542,99,87,187,140,2881,3013,2965,3150,2883,3013,2967,3149,1,1,1,1,233456,0,0,192,0,19,0,0,0,0,0,0,1,1,0,1,0,0,2,0,0,0,0,0,0,0,0,0,0,0,0,0,0,0,0,1,0,0,0,0,0,0,0,1052.227,89.53698,0,0,0,0,0,0,0,0,0,0,0,0,233456,-3105,0,-4550,0,1440,1480,1520,1440,0,0,19,0,0,0,0,0,47,993,1849,0,0,16,0,0,0,0,0,0,0,2774,2772,1,0,0,0,0,0,77,-1367,0,0,0,0,543,3000,0,-1033,3000,0,-22,3000,0,0,0,0,0,49,0,0,0,0,0,0,0,0,0,0,0
233633,25,1,6,572,256,255,36,0,10,0,1,0,0,0,1,0,0,0,0,2,0,0,0,4,409,0,211,6,1,1,13,453,1137963011,229317757,27818,233632,0.3384519,-0.7747026,-44,0,0,0,0,0,0,0,4,2,0,0,1195,1250,1299,1244,1000,0,0,0,2314,2216,3198,2202,-12,23,-439,-438,1427,43,18,-993,1,0,-1,49,-9.494307,-46,8,1,0,50,0,10.5233,0.8953657,0,0,1137963011,229317757,-0.007,0,0,6,22,296252200,2294,2,3,0,7,42,10.4528,0.9626551,-4373,0,0,1467,0,0,0,0,0,0,0,233599,229317760,1137963049,27825,229317723,1137963007,27839,0,0,0,0,229317766,1137963042,27819,0,0,0,0,227,10,0,22,22,6,6,6,6,0,0,1,42,40,-437,-437,-437,-108,250,-123,238,10.4528,0.9626551,10.45149,0.9645656,0,0,0,0,6,3,1,1,-4521,1,0,3,20,0,0,0,0,232,-91,-4399,31,0,3,10.50557,0.9636808,-9.494102,0,0,100,100,7,1,-155,-202,-230,-230,0,-9.49827,27825,-3,-3,0,1,0,32762,32772,32898,32773,32847,33780,32804,32835,33775,32789,32834,33758,32771,32768,32764,32775,32770,32773,100,100,100,100,38,42,42,43,355,0,0,0,0,1,29,45,2,45,2,0,0,0,0,24,2,1,1,1,15420,0,0,1754,0,131,549494129,1,16,2,0,0,0,0,0,0,0,0,0,0,0,0,0,0,0,0,0,0,0,0,0,0,0,0,0,0,0,0,0,0,0,0,0,0,0,0,1,0,0,0,19,0,0,17,0,0,1,0,0,49,2,0,0,0,0,0,0,52,0,0,0,0,0,0,0,0,0,0,0,0,0,0,0,0,0,0,0,0,0,0,0,0,2,0,0,0,0,0,0,0,2,1,48,0,3,1,100,0,0,188,0,0,0,0,0,1000,0,0,0,1000,8,0,1,1,0,2057,2198,2182,2816,2232,4531,4525,4540,4542,99,126,390,128,2881,3013,2967,3150,2881,3013,2967,3150,1,1,1,1,233557,0,0,188,0,22,0,0,0,0,0,0,1,1,0,1,0,0,2,0,0,0,0,0,0,0,0,0,0,0,0,0,0,0,0,1,0,0,0,0,0,0,0,1052.227,89.53698,0,0,0,0,0,0,0,0,0,0,0,0,233557,-3086,0,-4531,0,1440,1480,1520,1440,0,0,22,0,0,0,0,0,47,993,1849,0,0,16,0,0,0,0,0,0,0,2776,2775,1,0,0,0,0,0,77,-1367,0,0,0,0,538,3000,0,-1028,3000,0,-22,3000,0,0,0,0,0,49,0,0,0,0,0,0,0,0,0,0,0
233733,25,1,6,572,256,255,36,0,10,0,1,0,0,0,1,0,0,0,0,2,0,0,0,4,409,0,211,6,1,1,13,453,1137963011,229317757,27818,233732,0.3345717,-0.7733553,-44,0,0,0,0,0,0,0,4,2,0,0,1228,1280,1330,1277,1000,0,0,0,2636,2860,3580,2202,-12,23,-440,-437,1408,43,18,-993,1,0,-1,49,-9.494064,-46,9,1,0,50,0,10.52335,0.895357,0,0,1137963011,229317757,-0.007,0,0,6,22,296252200,2294,2,3,0,7,42,10.4528,0.9626551,-4373,0,0,1467,0,0,0,0,0,0,0,233700,229317760,1137963049,27825,229317723,1137963007,27839,0,0,0,0,229317766,1137963042,27819,0,0,0,0,227,10,0,22,22,6,6,6,6,0,0,1,42,40,-437,-437,-437,-113,246,-123,238,10.4528,0.9626551,10.45157,0.9645665,0,0,0,0,6,3,1,1,-4520,1,0,3,20,0,0,0,0,234,-93,-4400,39,0,4,10.54104,0.9643016,-9.494252,0,0,100,100,7,1,-154,-197,-230,-230,0,-9.49827,27825,-3,-3,0,1,0,32762,32772,32898,32773,32847,33780,32804,32835,33775,32789,32834,33758,32771,32768,32764,32775,32770,32773,100,100,100,100,38,42,42,43,355,0,0,0,0,1,29,45,2,45,2,0,0,0,0,24,2,1,1,1,15420,0,0,1754,0,131,549494129,1,16,2,0,0,0,0,0,0,0,0,0,0,0,0,0,0,0,0,0,0,0,0,0,0,0,0,0,0,0,0,0,0,0,0,0,0,0,0,1,0,0,0,19,0,0,17,0,0,1,0,0,49,2,0,0,0,0,0,0,54,0,0,0,0,0,0,0,0,0,0,0,0,0,0,0,0,0,0,0,0,0,0,0,0,2,0,0,0,0,0,0,0,2,1,48,0,3,1,104,0,0,192,0,0,0,0,0,1000,0,0,0,1000,8,0,1,1,0,2057,2202,2498,3198,2314,4532,4525,4541,4542,221,300,477,68,2876,3013,2961,3152,2876,3013,2960,3153,1,1,1,1,233656,0,0,188,0,25,0,0,0,0,0,0,1,1,0,1,0,0,2,0,0,0,0,0,0,0,0,0,0,0,0,0,0,0,0,1,0,0,0,0,0,0,0,1052.227,89.53698,0,0,0,0,0,0,0,0,0,0,0,0,233656,-3071,0,-4515,0,1440,1480,1520,1440,0,0,25,0,0,0,0,0,64,993,2500,0,0,16,0,0,0,0,0,0,0,2776,2775,1,0,0,0,0,0,77,-1367,0,0,0,0,530,3000,0,-1017,3000,0,-21,3000,0,0,0,0,0,49,0,0,0,0,0,0,0,0,0,0,0
233833,25,1,6,572,256,255,36,0,10,0,1,0,0,0,1,0,0,0,0,2,0,0,0,4,409,0,211,6,1,1,13,453,1137963011,229317757,27818,233833,0.3330855,-0.7673943,-44,0,0,0,0,0,0,0,4,2,0,0,1308,1363,1399,1360,1000,0,0,0,3426,3224,4308,2574,-11,22,-439,-437,1530,43,18,-993,1,0,-1,49,-9.49172,-45,21,0,0,49,0,10.52334,0.8953246,0,0,1137963011,229317757,0.003,0,0,6,21,296252400,2294,2,3,0,7,42,10.4528,0.9626551,-4373,0,0,1467,0,0,0,0,0,0,0,233799,229317760,1137963049,27815,229317723,1137963007,27846,0,0,0,0,229317766,1137963042,27817,0,0,0,0,227,10,0,21,22,6,6,6,6,0,0,1,42,40,-437,-437,-437,-112,245,-123,237,10.4528,0.9626551,10.4516,0.9645685,0,0,0,0,6,3,1,1,-4531,0,0,3,20,0,0,0,0,201,-61,-4400,34,0,4,10.52571,0.9645236,-9.492334,0,0,100,100,7,2,-154,-190,-229,-230,4,-9.488329,27815,-3,-3,0,1,0,32762,32772,32898,32773,32847,33780,32804,32835,33775,32789,32834,33758,32771,32768,32764,32775,32770,32773,100,100,100,100,38,42,42,43,355,0,0,0,0,1,29,45,2,45,2,0,0,0,0,24,2,1,1,1,15420,0,0,1754,0,131,549494129,1,16,2,0,0,0,0,0,0,0,0,0,0,0,0,0,0,0,0,0,0,0,0,0,0,0,0,0,0,0,0,0,0,0,0,0,0,0,0,1,0,0,0,19,0,0,17,0,0,1,0,0,49,2,0,0,0,0,0,0,56,0,0,0,0,0,0,0,0,0,0,0,0,0,0,0,0,0,0,0,0,0,0,0,0,2,0,0,0,0,0,0,0,2,1,48,0,3,1,107,0,0,192,0,0,0,0,0,1000,0,0,0,1000,8,0,1,1,0,2057,2202,2860,3962,3022,4531,4525,4540,4541,362,307,543,47,2876,3013,2960,3152,2876,3014,2961,3153,1,1,1,1,233756,0,0,192,0,28,-1,0,0,0,0,0,1,1,0,3,0,0,2,0,0,0,0,0,0,0,0,0,0,0,0,0,0,0,0,1,0,0,0,0,0,0,0,1052.227,89.53698,0,0,0,0,0,0,0,0,0,0,0,0,233756,-3076,0,-4520,0,1440,1480,1520,1440,0,0,28,0,0,0,0,0,64,993,2500,0,0,16,0,0,0,0,0,0,0,2779,2779,1,0,0,0,0,0,77,-1367,0,0,0,0,523,3000,0,-1008,3000,0,-21,3000,0,0,0,0,0,49,0,0,0,0,0,0,0,0,0,0,0
233933,25,1,6,572,256,255,36,0,10,0,1,0,0,0,1,0,0,0,0,2,0,0,0,4,409,0,211,6,1,1,13,453,1137963011,229317757,27818,233933,0.3049701,-0.6099048,-44,0,0,0,0,0,0,0,4,2,0,0,1470,1485,1415,1462,1000,0,0,0,3894,4234,4788,3106,-5,13,-437,-436,-1744,43,18,-993,1,0,-1,49,-9.492588,-42,58,0,-7,42,0,10.52408,0.8946236,0,0,1137963011,229317757,0.003,0,0,6,21,296252400,2294,2,3,0,7,42,10.4528,0.9626551,-4373,0,0,1467,0,0,0,0,0,0,0,233899,229317760,1137963049,27815,229317723,1137963007,27846,0,0,0,0,229317765,1137963042,27816,0,0,0,0,227,10,0,21,22,6,6,6,6,0,0,1,42,40,-436,-436,-436,-113,248,-123,236,10.4528,0.9626551,10.45158,0.964467,0,0,0,0,6,3,1,1,-4584,0,0,3,20,0,0,0,0,235,-100,-4386,42,0,3,10.56448,0.9649792,-9.490893,0,0,100,100,7,4,-154,-172,-229,-230,4,-9.488329,27815,-3,-3,0,1,0,32842,32807,32975,32695,32875,33876,32728,32861,33869,32715,32864,33847,32596,32643,32730,32574,32608,32740,100,100,100,100,38,42,42,43,356,0,0,0,0,1,29,45,2,45,2,0,0,0,0,24,-4,1,1,1,16448,0,0,1754,0,131,549494129,1,16,2,0,0,0,0,0,0,0,0,0,0,0,0,0,0,0,0,0,0,0,0,0,0,0,0,0,0,0,0,0,0,0,0,0,0,0,0,1,0,0,0,19,0,0,17,0,0,1,0,0,49,2,0,0,0,0,0,0,58,0,0,0,0,0,0,0,0,0,0,0,0,0,0,0,0,0,0,0,0,0,0,0,0,2,0,0,0,0,0,0,0,2,1,48,0,3,1,110,0,0,180,0,0,0,0,0,1000,0,0,0,1000,8,0,1,1,0,2057,2574,3580,4308,3426,4532,4525,4541,4541,406,526,663,250,2858,3014,2958,3147,2858,3013,2957,3146,1,1,1,1,233857,0,0,184,0,38,-36,0,-2,0,0,0,1,1,0,3,0,0,2,0,0,0,0,0,0,0,0,0,0,0,0,0,0,0,0,1,0,0,0,0,0,0,0,1052.227,89.53698,0,0,0,0,0,0,0,0,0,0,0,0,233857,-3109,0,-4542,0,1440,1480,1520,1440,0,0,38,0,0,0,0,0,139,993,5462,0,0,16,0,0,0,0,0,0,0,2779,2779,1,0,0,0,0,0,77,-1367,0,0,0,0,483,3000,0,-964,3000,0,-18,3000,0,0,0,0,0,49,0,0,0,0,0,0,0,0,0,0,0
234033,25,1,6,572,256,255,36,0,10,0,1,0,0,0,1,0,0,0,0,2,0,0,0,4,409,0,211,6,1,1,13,453,1137963011,229317757,27818,234032,-0.0351082,0.2288867,-44,0,0,0,0,0,0,0,4,2,0,0,1569,1568,1430,1476,1000,0,0,0,6136,5346,5802,4260,6,-21,-434,-436,897,48,16,-1056,29,-52,6,49,-9.513531,-36,173,0,-32,16,0,10.52972,0.8927358,1,-1,1137963011,229317757,-0.007,0,0,6,22,296252600,2294,2,3,0,7,42,10.46392,0.9626551,-4294,0,0,1467,0,0,0,0,0,0,0,234000,229317760,1137963049,27826,229317724,1137963007,27850,0,0,0,0,229317765,1137963042,27829,0,0,0,0,227,10,0,22,22,6,6,6,6,0,0,1,42,40,-433,-433,-433,-105,238,-122,235,10.46392,0.9626551,10.45425,0.9632526,1,0,0,0,6,3,1,1,-4708,0,-2,3,20,0,0,0,0,307,-350,-4351,40,-2,-13,10.54606,0.9628912,-9.503468,0,0,100,100,7,6,-154,-109,-230,-230,-5,-9.499645,27826,-3,-3,0,1,0,32842,32807,32975,32695,32875,33876,32728,32861,33869,32715,32864,33847,32596,32643,32730,32574,32608,32740,100,100,100,100,38,42,42,43,356,0,0,0,0,1,29,45,2,45,2,0,0,0,0,24,-4,1,1,1,16448,0,0,1754,0,131,549494129,1,16,2,0,0,0,0,0,0,0,0,0,0,0,0,0,0,0,0,0,0,0,0,0,0,0,0,0,0,0,0,0,0,0,0,0,0,0,0,1,0,0,0,19,0,0,17,0,0,1,0,0,49,2,0,0,0,0,0,0,59,0,0,0,0,0,0,0,0,0,0,0,0,0,0,0,0,0,0,0,0,0,0,0,0,2,0,0,0,0,0,0,0,2,1,48,0,3,1,114,0,0,140,0,0,0,0,0,1000,0,0,0,1000,8,0,1,1,0,2057,3106,4234,4788,4992,4531,4526,4540,4542,1103,907,821,653,2856,3013,2957,3147,2858,3014,2957,3147,1,1,1,1,233956,0,0,168,0,47,-62,-11,-11,0,0,0,1,1,0,3,0,0,2,0,0,0,0,0,0,0,0,0,0,0,0,0,0,0,0,3,0,0,0,0,0,0,0,1052.227,89.53698,0,0,0,0,0,0,0,0,0,0,0,0,233956,-3185,0,-4629,0,1440,1480,1520,1440,0,0,47,0,0,0,0,0,139,993,5462,0,0,16,0,0,0,0,0,0,0,2775,2776,1,0,0,0,0,0,77,-1367,0,0,0,0,80,3000,0,-284,3000,0,0,3000,0,0,0,0,0,49,0,0,2,0,0,0,0,0,0,0,0
234133,25,1,7,1072,255,241,35,0,10,0,1,0,0,0,1,0,0,0,0,1,0,0,0,4,409,0,211,6,1,1,13,1820,1137963011,229317757,27818,234133,-0.2697751,1.348687,-44,0,0,0,0,0,0,0,4,2,0,0,1524,1545,1472,1478,1000,0,79,0,6390,7702,5316,7408,1,-24,-433,-431,526,23,-4,-1296,101,-368,21,79,-9.567825,-35,237,0,-69,-19,0,10.53842,0.8878812,4,-3,1137963011,229317757,-0.007,0,0,6,22,296252600,2294,2,3,0,7,42,10.46392,0.9626551,-4294,0,0,1467,0,0,0,0,0,0,0,234099,229317760,1137963049,27826,229317724,1137963007,27850,0,0,0,0,229317766,1137963041,27868,0,0,0,0,227,10,0,22,22,6,6,6,6,0,0,1,42,40,-432,-432,-432,-98,232,-121,233,10.46392,0.9626551,10.46005,0.9605685,1,0,2,-1,6,3,1,1,-5033,0,-20,3,20,0,0,0,0,303,-493,-4338,53,-5,-41,10.5936,0.9589458,-9.545161,0,0,100,100,7,1,-154,-85,-230,-230,-5,-9.499645,27826,-3,-3,0,1,0,32842,32807,32975,32695,32875,33876,32728,32861,33869,32715,32864,33847,32596,32643,32730,32574,32608,32740,100,100,100,100,38,42,42,43,356,0,0,0,0,1,29,45,2,45,2,0,0,0,0,24,-4,1,1,1,16448,0,0,1754,0,131,549494129,1,16,2,0,0,0,0,0,0,0,0,0,0,0,0,0,0,0,0,0,0,0,0,0,0,0,0,0,0,0,0,0,0,0,0,0,0,0,0,1,0,0,0,19,0,0,17,0,0,1,0,0,49,2,0,0,0,0,0,0,61,0,0,0,0,0,0,0,0,0,0,0,0,0,0,0,0,0,0,0,0,0,0,0,0,2,0,0,0,0,0,0,0,2,1,48,0,3,1,117,0,0,84,0,0,0,0,0,1000,0,0,0,1000,8,0,1,1,0,2057,5940,6638,5802,6136,4531,4525,4540,4542,1132,1738,392,1780,2867,3017,2975,3131,2866,3017,2974,3129,1,1,1,1,234056,0,0,140,0,51,-78,-40,-17,0,0,0,1,1,0,3,0,0,2,0,0,0,0,0,0,0,0,0,0,0,0,0,0,0,0,3,0,0,0,0,0,0,0,1052.227,89.53698,0,0,0,0,0,0,0,0,0,0,0,0,234056,-3397,0,-4842,0,1440,1480,1520,1440,0,0,51,0,0,0,2,0,139,993,5462,0,0,16,0,0,0,0,0,0,0,2775,2775,1,0,0,0,0,0,77,-1367,0,0,0,0,-293,3000,0,1126,3000,0,-13,3000,0,0,0,0,0,49,0,0,2,0,0,0,0,0,0,0,0
234233,25,1,7,1072,255,241,35,0,10,0,1,0,0,0,1,0,0,0,0,1,0,0,0,4,409,0,211,6,1,1,13,1820,1137963011,229317757,27818,234232,-0.3184914,2.608094,-44,0,0,0,0,0,0,0,4,2,0,0,1472,1492,1425,1437,1000,0,78,0,6624,7556,6154,7328,0,-34,-434,-431,-23,23,-4,-1296,101,-368,21,78,-9.658379,-37,220,-19,-93,-45,0,10.55199,0.8760449,9,-6,1137963010,229317758,-0.06,0,0,6,22,296252800,2294,2,3,0,7,42,10.47504,0.9421731,-4294,0,0,1467,0,0,0,0,0,0,0,234199,229317761,1137963047,27875,229317725,1137963005,27931,0,0,0,0,229317767,1137963040,27945,0,0,0,0,227,10,0,22,22,6,6,6,6,8,-11,-24,42,40,-432,-432,-432,-89,166,-119,230,10.47504,0.9421731,10.47003,0.9522896,8,-10,5,-3,6,3,1,1,-5412,-19,-54,3,20,0,0,0,0,199,-531,-4343,47,-11,-67,10.57619,0.9391592,-9.625848,0,0,100,100,7,1,-143,-93,-235,-230,-22,-9.544786,27875,-3,-3,0,1,0,32842,32807,32975,32695,32875,33876,32728,32861,33869,32715,32864,33847,32596,32643,32730,32574,32608,32740,100,100,100,100,38,42,42,43,356,0,0,0,0,1,29,45,2,45,2,0,0,0,0,24,-4,1,1,1,16448,0,0,1754,0,131,549494129,1,16,2,0,0,0,0,0,0,0,0,0,0,0,0,0,0,0,0,0,0,0,0,0,0,0,0,0,0,0,0,0,0,0,0,0,0,0,0,1,0,0,0,19,0,0,17,0,0,1,0,0,49,2,0,0,0,0,0,0,63,0,0,0,0,0,0,0,0,0,0,0,0,0,0,0,0,0,0,0,0,0,0,0,0,2,0,0,0,0,0,0,0,2,1,48,0,3,0,120,0,0,0,0,0,0,0,0,1000,0,0,0,1000,8,0,1,1,0,2057,7408,7702,5316,6390,4531,4525,4540,4542,957,1481,740,1804,2866,3016,2975,3128,2867,3017,2974,3129,1,1,1,1,234158,0,0,0,0,49,-80,-77,-18,0,0,0,1,1,0,3,0,0,2,0,0,0,0,0,0,0,0,0,0,0,0,2,0,0,0,3,0,0,0,0,0,0,0,1052.227,89.53698,0,0,0,0,0,0,0,0,0,0,0,0,234158,-3794,0,-5239,0,1440,1480,1520,1440,0,0,49,0,0,0,7,0,578,993,23253,0,0,16,0,0,0,0,0,1,0,2779,2778,1,0,0,0,0,0,80,-1367,1,0,0,0,-6,3000,0,1191,3000,0,0,3000,0,0,0,0,0,81,0,0,2,0,0,0,0,0,0,0,0
234333,25,1,7,1072,255,241,35,0,10,0,1,0,0,0,1,0,0,0,0,1,0,0,0,4,409,0,211,6,1,1,13,1820,1137963011,229317757,27818,234332,-0.1584584,3.844178,-44,0,0,0,0,0,0,0,4,2,0,0,1471,1486,1387,1382,1000,0,79,0,6016,7556,5602,7330,-4,-22,-435,-431,72,23,-4,-1296,101,-368,21,79,-9.761692,-41,137,-19,-95,-50,0,10.56987,0.8584237,13,-11,1137963010,229317758,-0.06,0,0,6,22,296252800,2294,2,3,0,7,42,10.47504,0.9421731,-4294,0,0,1467,0,0,0,0,0,0,0,234300,229317761,1137963047,27875,229317725,1137963005,27931,0,0,0,0,229317768,1137963039,28045,0,0,0,0,227,10,0,22,22,6,6,6,6,8,-11,-24,42,40,-433,-433,-433,-147,122,-95,201,10.47504,0.9421731,10.48473,0.9392027,8,-10,10,-6,6,3,1,1,-5581,-19,-84,3,20,0,0,0,0,162,-430,-4347,56,-17,-82,10.62881,0.9239128,-9.727792,0,0,100,100,7,1,-121,-131,-235,-233,-22,-9.544786,27875,-3,-3,0,1,0,32842,32807,32975,32695,32875,33876,32728,32861,33869,32715,32864,33847,32596,32643,32730,32574,32608,32740,100,100,100,100,38,42,42,43,356,0,0,0,0,1,29,45,2,45,2,0,0,0,0,24,-4,1,1,1,16448,0,0,1754,0,131,549494129,1,16,2,0,0,0,0,0,0,0,0,0,0,0,0,0,0,0,0,0,0,0,0,0,0,0,0,0,0,0,0,0,0,0,0,0,0,0,0,1,0,0,0,19,0,0,17,0,0,1,0,0,49,2,0,0,0,0,0,0,65,0,0,0,0,0,0,0,0,0,0,0,0,0,0,0,0,0,0,0,0,0,0,0,0,2,0,0,0,0,0,0,0,2,1,48,0,3,0,124,0,0,0,0,0,0,0,0,1000,0,0,0,1000,8,0,1,1,0,2057,7310,7556,6598,6666,4531,4525,4541,4542,668,1172,409,1693,2865,3016,2957,3119,2863,3017,2958,3119,1,1,1,1,234256,0,0,0,0,44,-65,-96,-18,0,0,0,1,1,0,3,0,0,2,0,0,0,0,0,0,0,0,0,0,0,0,4,0,0,0,3,0,0,0,0,0,0,0,1052.227,89.53698,0,0,0,0,0,0,0,0,0,0,0,0,234256,-4116,0,-5525,0,1440,1480,1520,1440,0,0,44,0,0,0,12,0,578,993,23253,0,0,16,0,0,0,0,0,1,0,2778,2779,1,0,0,0,0,0,79,-1367,1,0,0,0,1,3000,0,1386,3000,0,0,3000,0,0,0,0,0,80,0,0,2,0,0,0,0,0,0,0,0
234433,25,1,7,1072,255,241,35,0,10,0,1,0,0,0,1,0,0,0,0,1,0,0,0,4,409,0,211,6,1,1,13,1820,1137963011,229317757,27818,234433,0.1095204,4.935211,-44,0,0,0,0,0,0,0,4,2,0,0,1436,1425,1382,1376,1000,0,78,0,5902,6550,5966,6208,-2,-27,-437,-433,-465,23,-4,-1296,101,-368,21,78,-9.868181,-44,17,-134,-95,-44,0,10.5855,0.8426338,15,-16,1137963007,229317761,-0.06,0,0,6,22,296252800,2294,2,3,0,7,42,10.47504,0.9421731,-4294,8,-10,1467,0,0,0,0,0,0,0,234399,229317762,1137963047,28061,229317726,1137963004,28102,0,0,0,0,229317770,1137963037,28151,0,0,0,0,227,10,0,22,22,6,6,6,6,10,-7,-134,42,39,-434,-434,-434,-31,62,-11,7,10.48616,0.9421731,10.50055,0.9247142,9,-6,14,-12,6,3,1,1,-5631,-134,-99,3,20,0,0,0,0,92,-394,-4363,39,-20,-100,10.58696,0.9144602,-9.833953,0,0,100,100,7,3,-151,-162,-253,-239,-90,-9.726336,28061,-3,-3,0,1,0,32752,32765,32878,32743,32781,33534,32791,32761,33534,32797,32753,33495,32657,32727,32789,32700,32710,32803,100,100,100,100,38,42,42,43,352,1,0,0,0,1,29,45,2,45,2,0,0,0,0,24,-3134,14,13,14,16448,0,0,1754,0,131,549494129,1,16,2,0,0,0,0,0,0,0,0,0,0,0,0,0,0,0,0,0,0,0,0,0,0,0,0,0,0,0,0,0,0,0,0,0,0,0,0,1,0,0,0,19,0,0,17,0,0,1,0,0,49,2,0,0,0,0,0,0,67,0,0,0,0,0,0,0,0,0,0,0,0,0,0,0,0,0,0,0,0,0,0,0,0,2,0,0,0,0,0,0,0,2,1,48,0,3,0,127,0,0,0,0,0,0,0,0,1000,0,0,0,1000,8,0,1,1,0,2057,7330,7058,5602,6016,4532,4525,4540,4542,800,837,679,554,2863,3014,2957,3119,2865,3013,2957,3119,1,1,1,1,234357,0,0,0,0,43,-53,-96,-13,0,0,0,1,1,0,3,0,0,2,0,0,0,0,0,0,0,0,0,0,0,0,6,0,0,0,3,0,0,0,0,0,0,0,1052.227,89.53698,0,0,0,0,0,0,0,0,0,0,0,0,234357,-4172,0,-5603,0,1440,1480,1520,1440,0,0,43,0,0,0,19,0,578,993,23253,0,0,16,0,0,0,0,0,0,0,2764,2764,1,0,0,0,0,0,78,-1367,1,0,0,0,185,3000,0,1062,3000,0,7,3000,0,0,0,0,0,79,0,0,2,0,0,0,0,0,0,0,0
234533,25,1,7,1072,255,241,35,0,10,0,1,0,0,0,1,0,0,0,0,1,0,0,0,4,409,0,211,6,1,1,13,1820,1137963011,229317757,27818,234532,0.2144461,5.613562,-44,0,0,0,0,0,0,0,4,2,0,0,1407,1375,1366,1368,1000,0,80,0,4872,6972,4952,6724,-1,-2,-440,-442,-468,3,-6,-1090,-19,10,-10,80,-9.970232,-48,-178,-134,-86,-28,0,10.60355,0.8234482,18,-19,1137963007,229317761,-0.06,0,0,6,22,296252800,2294,2,3,0,7,42,10.47504,0.9421731,-4294,8,-10,1467,0,0,0,0,0,0,0,234499,229317762,1137963047,28061,229317726,1137963004,28102,0,0,0,0,229317771,1137963036,28256,0,0,0,0,227,10,0,22,22,6,6,6,6,10,-7,-134,42,39,-437,-437,-437,16,46,23,-170,10.48616,0.9421731,10.51679,0.9081591,9,-6,16,-16,6,3,1,1,-5607,-134,-103,3,20,0,0,0,0,111,-184,-4393,43,-22,-87,10.62854,0.8926381,-9.938462,0,0,100,100,7,0,-205,-202,-253,-247,-90,-9.726336,28061,-3,-3,0,1,0,32752,32765,32878,32743,32781,33534,32791,32761,33534,32797,32753,33495,32657,32727,32789,32700,32710,32803,100,100,100,100,38,42,42,43,352,1,0,0,0,1,29,45,2,45,2,0,0,0,0,24,-3134,14,13,14,16448,0,0,1754,0,131,549494129,1,16,2,0,0,0,0,0,0,0,0,0,0,0,0,0,0,0,0,0,0,0,0,0,0,0,0,0,0,0,0,0,0,0,0,0,0,0,0,1,0,0,0,19,0,0,17,0,0,1,0,0,49,2,0,0,0,0,0,0,69,0,0,0,0,0,0,0,0,0,0,0,0,0,0,0,0,0,0,0,0,0,0,0,0,2,0,0,0,0,0,0,0,2,1,48,0,3,0,130,0,0,0,0,0,0,0,0,1000,0,0,0,1000,8,0,1,1,0,2057,6208,6550,5502,5338,4530,4525,4540,4541,264,1108,262,909,2848,3013,2946,3090,2849,3013,2946,3091,1,1,1,1,234457,0,0,0,0,39,-43,-95,-7,0,0,0,1,1,0,3,0,0,2,0,0,0,0,0,0,0,0,0,0,0,0,8,0,0,0,3,0,0,0,0,0,0,0,1052.227,89.53698,0,0,0,0,0,0,0,0,0,0,0,0,234457,-4183,0,-5631,0,1440,1480,1520,1440,0,0,39,0,0,0,24,0,593,993,24126,0,0,16,0,0,0,0,0,-1,0,2764,2764,1,0,0,0,0,0,77,-1367,1,0,0,0,87,3000,0,958,3000,0,3,3000,0,0,0,0,0,78,0,0,2,0,0,0,0,0,0,0,0
