FcTime,PowerOnCount,FlightCount,SequenceNumber,FlightTime,BatteryVoltage,AdcVoltage,CoreTemp,SelfCheckStatus,ledState,FaultFlag,ErrHandling,SoftwareVersion,ConfigCount,SimState,ProductType,ModelOnliebit1,ModelOnliebit2,FrameLoss1,FrameLoss2,RTKBit,MSDFBit,PlatBit,FCBit,SensorState,ImuTemp,ImuState,ImuUse,UseGPSState,TempState,SafeState,HeadErrFlag,AccelZAmp,HomeLongitude,HomeLatitude,HomeAltitude,SystemTime,RollControl,PitchControl,YawControl,HeightVelocityContorl,NorthVelocityHandle,EastVelocityHandle,Aileron,Elevator,Throttle,Rudder,Mode,AutoMode,RCState,Reserve2,OutputM1,OutputM2,OutputM3,OutputM4,OutputM5,OutputM6,OutputM7,OutputM8,MortorSpeed1,MortorSpeed2,MortorSpeed3,MortorSpeed4,RollAngle,PitchAngle,YawAngle,HeadingAngle,EstimateHeading,AccelX,AccelY,AccelZ,GyroRoll,GyroPitch,GyroYaw,GroundHeight,VerticalHeight,BaroHeight,BaroVelocity,GPSVelocity,VerticalVelocity,AHRSVelocity,Reserve3,NorthPosition,EastPosition,NorthVelocity,EastVelocity,CurrentLongitude,CurrentLatitude,CurrentHeight,Lon89,Lat89,GPSFix,GPSNumSV,GPSITOW,GPSWeek,GPSDiffAge,RtkDevice,PositionAccuracy,GPSHeadAccuracy,HorVelocityAccuracy,GPSNorthPos,GPSEastPos,GPSPosHead,GPSNorthVelocity,GPSEastVelocity,stationId,MainRev1,MainRev2,msg_id,sub_cmd_id,retval,from_id,rev_timestamp_ms,SystemTimeMsdf,GpsRight1,GpsRight2,GpsRightAltitude,GpsLeft1,GpsLeft2,GpsLeftAltitude,Lon_R89,Lat_R89,Lon_L89,Lat_L89,FusionGpsLoacation1,FusionGpsLoacation2,FusionGpsLoacation3,LngErr,LatErr,AltErr,GpsVelErrFlag,GpsPosErrType,GpsAltErrType,GpsUseIndex,GpsNsv1,GpsNsv2,Fixmode1,Fixmode2,GpsHeadFixmode1,GpsHeadFixmode2,UseGpsVel1,UseGpsVel2,UseGpsVel3,GpsVelAccuracy1,GpsVelAccuracy2,AccEstHead,GyroEstHead,InsEstHead,AccEuler1,AccEuler2,DelayEuler1,DelayEuler2,GpsPos1,GpsPos2,FusionPos1,FusionPos2,GpsVel1,GpsVel2,DelayVel1,DelayVel2,UseGpsState,HorizFusionSource,HorizKalmanNum,GpsValidState,Rev2,Rev3,Rev4,FlowState,FlowHealthyFactor,FlowVel1,FlowVel2,DelayVelFlow1,DelayVelFlow2,EkfEuler1,EkfEuler2,EkfEuler3,EkfVel1,EkfVel2,EkfVel3,EkfPos1,EkfPos2,EkfPos3,WindVelNE1,WindVelNE2,KaccXY1,KaccXY2,VerticalFusionSource,BaroCmpeK,AccOffsetZ,BaroCorrectHeight,GpsHeightForFusion,AhrsDelayHeightBaro,GpsPosDiffVelZ,InteVelNE1,InteVelNE2,VerticalVel_3imu1,VerticalVel_3imu2,UseVerticalVelIndex,UseNavSource,FlySafeState,Acc0_adc1,Acc0_adc2,Acc0_adc3,Acc1_adc1,Acc1_adc2,Acc1_adc3,Acc2_adc1,Acc2_adc2,Acc2_adc3,Acc3_adc1,Acc3_adc2,Acc3_adc3,Gyro0_adc1,Gyro0_adc2,Gyro0_adc3,Gyro3_adc1,Gyro3_adc2,Gyro3_adc3,Imustate1,Imustate2,Imustate3,Imustate4,ImuTemperature1,ImuTemperature2,ImuTemperature3,ImuTemperature4,S3EstVar,AccXamp,AccYamp,AccXamp2,AccYamp2,AccZamp2,BaroTemperature,FftFreq,FftAmp,FftFreq2,FftAmp2,PosFuisonQuality1,PosFuisonQuality2,PosFuisonQuality3,VelFusionQuality1,VelFusionQuality2,VelFusionQuality3,AccZErrInte1,AccZErrInte2,AccZErrInte3,Rev41,f_airX,f_airY,InsLogVersion,SensorInitState,BaroType,SystemTimeTPS,SystemSwitch,Rev1,TpsStatus,MotionStatus,ProjectID1,ProjectID2,ProjectID3,ProjectID4,ProjectID5,ProjectID6,ProjectID7,ProjectID8,ProjectID9,ProjectID10,ProjectID11,ProjectID12,ProjectID13,ProjectID14,ProjectID15,ProjectID16,MissionID1,MissionID2,MissionID3,MissionID4,MissionID5,MissionID6,MissionID7,MissionID8,MissionID9,MissionID10,MissionID11,MissionID12,MissionID13,MissionID14,MissionID15,MissionID16,MotionMode,ListType,Segment,Rev5,WpNum,WpLen,ListWpNum,ListWpRestNum,ListStartIndex,ListEndIndex,RouteStatus,NavStatus,WpIndex,WpStatus,Cmd,CmdStatus,Action,ActionStatus,RobotModeStatus,Error,NavWpIndex,NavCmd,NavWpStatus,NavMode,Rev71,Rev72,Rev73,NavError,Index,WpSegment,Type,Longitude,Latitude,Height,Speed,HeightBehavior,HeightSource,OaMode,RouteHeadType,RouteHeading,Reserved0,LoiterLongitude,LoiterLatitude,LoiterRadius,LoiterDirection,LoiterCircleCount,HoldTime,HoldBehavior,WpHeadType,WpHeading,TargetLongitude,TargetLatitude,TargetHeight,GoHomeCmd,Rev81,Rev82,Rev83,TpsRcHeightSource,TpsRcMode,TpsRcCmd,TpsRcCmdStatus,TpsRcSignalMode,TpsRcSignalStatus,Rev9,TpsRcSignal1,TpsRcSignal2,TpsRcSignal3,TpsRcSignal4,TpsRcSignal5,TpsRcSignal6,TpsRcSignal7,TpsRcSignal8,EventCode1,EventCode2,EventCode3,EventCode4,CurrEvCode,CurrEvcmdSn,CurrEvcmdSta,CurrEvEmergAct,ActiveEvCnt,Maybe_takeover,EvDataU16,Speed1,Speed2,Speed3,Speed4,OutputVolt1,OutputVolt2,OutputVolt3,OutputVolt4,OutputCurr1,OutputCurr2,OutputCurr3,OutputCurr4,CPUTemp1,CPUTemp2,CPUTemp3,CPUTemp4,MosBoardTemp1,MosBoardTemp2,MosBoardTemp3,MosBoardTemp4,XAStatus1,XAStatus2,XAStatus3,XAStatus4,SystemTimeControl,ControlX,ControlY,ControlZ,ControlR,ControlThrottle,VerticalVelocitySp,VerticalVelocity2,YawRateSp,AllStatusFlag,LandState,HeightLockFlag,PointLockFlag,TFFlag,LevelFlag,takeOffFlag,setPointLevelExtern,setPointHeightExtern,MotorState,wp_NorthSetPoint,wp_EastSetPoint,wp_NorthSetVel,wp_EastSetVel,wp_NorthSetAcc,wp_EastSetAcc,wp_VerticalSetPos,wp_VerticalSetVel,wp_VertivalSetAcc,RouteError,HeightSetPoint,TFOut,HoverError,NavUpdateCount,setSource,useSource,FlightUseHeightSource1,Rev101,Rev102,Rev103,XsenseDistance1,RollOut,PitchOut,YawOut,SetGPSPointLevelNorth1,SetGPSPointLevelEast1,Fbxxx1,Fbxxx2,Fbxxx3,Fbxxx4,Fbxxx5,Fbxxx6,Fbxxx7,Fbxxx8,Fbxxx9,Fbxxx10,Fbxxx11,Fbxxx12,SystemTimeFW,AirspeedRaw,AirSpeed,AirspeedRaw1,AirSpeed1,Servo1,Servo2,Servo3,Servo4,Fw_RollControl,Fw_PitchControl,MCThrottle,FWThrottle,TransStatus,TransToFw,Gnd_ms,Rev11,Power,Soc,Current,CaliAirSpeed,AutoType,WpState,Beta,Rev12,WindNorthSpeed,WindEastSpeed,Speed5,OutputVolt5,OutputCurr5,CPUTemp5,MosBoardTemp5,XAStatus5,CircleMode,UseLQR,LateralAccel,BearingError,CrossTrackError,TerrainHeightEstimate,TerrainCorrection,TerrainValid,ATT_Error,FwModeFailedCount,VtolFlightMode,RollBodyRateSP,RollBodyRate,RollLastOut,PitchBodyRateSP,PitchBodyRate,PitchLastOut,YawBodyRateSP,YawBodyRate,YawLastOut,RollInt,PitchInt,YawInt,DemRelativeAltitude,DemRelativeAltSP,DemVerticalVelocitySP,AirRev1,AirRev2,Cnt,Monitor1,Monitor2,FaultBit,AngleX,AngleY,AngleZ,DebugTest
230960,25,1,0,0,0,0,0,0,0,0,0,0,0,0,0,0,0,0,0,0,0,0,0,0,0,0,0,0,0,0,0,0,0,0,0,0,0,0,0,0,0,0,0,0,0,0,0,0,0,0,0,0,0,0,0,0,0,0,0,0,0,0,0,0,0,0,0,0,0,0,0,0,0,0,0,0,0,0,0,0,0,0,0,0,0,0,0,0,0,0,0,0,0,0,0,0,0,0,0,0,0,0,0,0,0,0,0,67,1,0,5046272,22452,0,0,0,0,0,0,0,0,0,0,0,0,0,0,0,0,0,0,0,0,0,0,0,0,0,0,0,0,0,0,0,0,0,0,0,0,0,0,0,0,0,0,0,0,0,0,0,0,0,0,0,0,0,0,0,0,0,0,0,0,0,0,0,0,0,0,0,0,0,0,0,0,0,0,0,0,0,0,0,0,0,0,0,0,0,0,0,0,0,0,0,0,0,0,0,0,0,0,0,0,0,0,0,0,0,0,0,0,0,0,0,0,0,0,0,0,0,0,0,0,0,0,0,0,0,0,0,0,0,0,0,0,0,0,0,0,0,0,0,0,0,0,0,0,0,0,0,0,0,0,0,0,0,0,0,0,0,0,0,0,0,0,0,0,0,0,0,0,0,0,0,0,0,0,0,0,0,0,0,0,0,0,0,0,0,0,0,0,0,0,0,0,0,0,0,0,0,0,0,0,0,0,0,0,0,0,0,0,0,0,0,0,0,0,0,0,0,0,0,0,0,0,0,0,0,0,0,0,0,0,0,0,0,0,0,0,0,0,0,0,0,0,0,0,0,0,0,0,0,0,0,0,0,0,0,0,0,0,0,0,0,0,0,0,0,0,0,0,0,0,0,0,0,0,0,0,0,0,0,0,0,0,0,0,0,0,0,0,0,0,0,0,0,0,0,0,0,0,0,0,0,0,0,0,0,0,0,0,0,0,0,0,0,0,0,0,0,0,0,0,0,0,0,0,0,0,0,0,0,0,0,0,0,0,0,0,0,0,0,0,0,0,0,0,0,0,0,0,0,0,0,0,0,0,0,0,0,0,0,0,0,0,0,0,0,0,0,0,0,0,0,0,0,0,0,0,0,0,0,0,0,0,0,0,0,0,0,0,0,0,0,0,0,0,0,0,0,0,0,0,0,0,0,0,0,0,0,0,0
231032,25,1,1,0,257,256,36,0,10,0,1,0,0,0,1,0,0,0,0,1,0,0,0,4,407,0,211,6,1,1,13,39,1137962924,229316811,18326,231032,0,0,-44,0,0,0,0,0,0,0,4,2,0,0,1190,1190,1190,1190,1000,0,0,0,0,0,0,0,-12,23,-441,-439,0,43,19,-997,0,0,-1,49,-9.492907,-53,-1,0,1,50,0,10.51343,0.8840342,0,0,1137963010,229317756,0,0,0,6,22,296249600,2294,2,3,0,7,43,10.44168,0.9524142,-4363,0,0,1467,0,0,0,0,0,0,0,0,0,0,0,0,0,0,0,0,0,0,0,0,0,0,0,0,0,0,0,0,0,0,0,0,0,0,0,0,0,0,0,0,0,0,0,0,0,0,0,0,0,0,0,0,0,0,0,0,0,0,0,0,0,0,0,0,0,0,0,0,0,0,0,0,0,0,0,0,0,0,0,0,0,0,0,0,0,0,0,0,0,0,0,0,0,0,0,0,0,0,0,0,0,0,0,0,0,0,0,0,0,0,0,0,0,0,0,0,0,0,0,0,0,0,0,0,0,0,0,0,0,0,0,0,0,0,0,0,0,0,0,0,0,0,0,0,0,0,549494129,1,2,2,0,0,0,0,0,0,0,0,0,0,0,0,0,0,0,0,0,0,0,0,0,0,0,0,0,0,0,0,0,0,0,0,0,0,0,0,0,0,0,0,19,0,0,18,0,0,1,0,0,48,2,0,0,0,0,0,0,2,0,0,0,0,0,0,0,0,0,0,0,0,0,0,0,0,0,0,0,0,0,0,0,0,2,0,0,0,0,0,0,0,2,0,48,1,0,0,59,0,0,0,0,0,0,0,0,1000,0,0,0,1000,1,0,1,1,0,2057,0,0,0,0,0,0,0,0,0,0,0,0,0,0,0,0,0,0,0,0,0,0,0,0,0,0,0,0,0,0,0,0,0,0,0,0,0,0,0,0,0,0,0,0,0,0,0,0,0,0,0,0,0,0,0,0,0,0,0,0,0,0,0,0,0,0,0,0,0,0,0,0,0,0,0,0,0,0,0,0,0,0,0,0,0,0,0,0,0,0,0,0,0,0,0,0,0,0,0,0,0,0,0,0,0,0,0,0,0,0,0,0,0,0,0,0,0,0,0,0,0,0,0,0,0,0,0,0,0,0,0,0,0,0,0,0,0,0,0,0,0,0,0,0,0,0,0,0,0,0
231532,25,1,2,0,256,256,35,0,10,0,1,0,0,0,1,0,0,0,0,1,0,0,0,4,408,0,211,6,1,1,13,31,1137962924,229316811,18326,231532,0,0,-44,0,0,0,0,0,0,0,4,2,0,0,1190,1190,1190,1190,1000,0,0,0,0,0,0,0,-12,23,-441,-439,0,44,18,-997,0,0,-1,49,-9.495226,-53,0,0,0,50,0,10.51151,0.8842135,0,0,1137963010,229317756,0,0,0,6,22,296250200,2294,1,3,0,7,43,10.44168,0.9626551,-4294,0,0,1467,0,0,6,48,0,5046272,228424,0,0,0,0,0,0,0,0,0,0,0,0,0,0,0,0,0,0,0,0,0,0,0,0,0,0,0,0,0,0,0,0,0,0,0,0,0,0,0,0,0,0,0,0,0,0,0,0,0,0,0,0,0,0,0,0,0,0,0,0,0,0,0,0,0,0,0,0,0,0,0,0,0,0,0,0,0,0,0,0,0,0,0,0,0,0,0,0,0,0,0,0,0,0,0,0,0,0,0,0,0,0,0,0,0,0,0,0,0,0,0,0,0,0,0,0,0,0,0,0,0,0,0,0,0,0,0,0,0,0,0,0,0,0,0,0,0,0,0,549494129,1,2,2,0,0,0,0,0,0,0,0,0,0,0,0,0,0,0,0,0,0,0,0,0,0,0,0,0,0,0,0,0,0,0,0,0,0,0,0,0,0,0,0,19,0,0,18,0,0,1,0,0,48,2,0,0,0,0,0,0,11,0,0,0,0,0,0,0,0,0,0,0,0,0,0,0,0,0,0,0,0,0,0,0,0,2,0,0,0,0,0,0,0,2,0,48,1,0,0,59,0,0,0,0,0,0,0,0,1000,0,0,0,1000,1,0,1,1,0,2057,0,0,0,0,4531,4525,4540,4542,0,0,0,0,2856,2993,2963,3171,2855,2993,2964,3171,1,1,1,1,231456,0,0,0,0,0,0,0,0,0,0,0,0,1,0,1,0,0,1,0,0,0,0,0,0,0,0,0,0,0,0,0,0,0,0,0,0,0,0,0,0,0,0,0,0,0,0,0,0,0,0,0,0,0,0,0,0,231456,-2090,0,-3535,0,1440,1480,1520,1440,0,0,0,0,0,0,0,0,17,993,702,0,0,2,0,0,0,0,0,0,0,2793,2795,1,0,0,0,0,0,77,-1367,0,0,0,0,540,3000,0,-1045,3000,0,-22,3000,0,0,0,0,0,49,0,0,0,0,0,0,0,0,0,0,0
232032,25,1,3,0,256,255,35,0,10,0,1,0,0,0,1,0,0,0,0,1,0,0,0,4,408,0,211,6,1,1,13,125,1137962924,229316811,18326,232032,0,0,-44,0,0,0,0,0,0,0,4,2,0,0,1190,1190,1190,1190,1000,0,0,0,1764,1908,1692,1660,-12,23,-441,-437,0,44,18,-997,0,0,-1,49,-9.495028,-51,24,0,0,50,0,10.51638,0.893487,0,0,1137963011,229317756,0,0,0,6,22,296250600,2294,1,3,0,7,43,10.44168,0.9626551,-4294,0,0,1467,0,0,0,0,0,0,0,0,0,0,0,0,0,0,0,0,0,0,0,0,0,0,0,0,0,0,0,0,0,0,0,0,0,0,0,0,0,0,0,0,0,0,0,0,0,0,0,0,0,0,0,0,0,0,0,0,0,0,0,0,0,0,0,0,0,0,0,0,0,0,0,0,0,0,0,0,0,0,0,0,0,0,0,0,0,0,0,0,0,0,0,0,0,0,0,0,0,0,0,0,0,0,0,0,0,0,0,0,0,0,0,0,0,0,0,0,0,0,0,0,0,0,0,0,0,0,0,0,0,0,0,0,0,0,0,0,0,0,0,0,0,0,0,0,0,0,549494129,1,2,2,0,0,0,0,0,0,0,0,0,0,0,0,0,0,0,0,0,0,0,0,0,0,0,0,0,0,0,0,0,0,0,0,0,0,0,0,0,0,0,0,19,0,0,18,0,0,1,0,0,48,2,0,0,0,0,0,0,21,0,0,0,0,0,0,0,0,0,0,0,0,0,0,0,0,0,0,0,0,0,0,0,0,2,0,0,0,0,0,0,0,2,0,48,1,0,0,59,0,0,0,0,0,0,0,0,1000,0,0,0,1000,1,0,1,1,0,2057,956,644,970,1026,4531,4525,4540,4541,264,262,282,216,2867,3002,3002,3157,2866,3002,3002,3157,1,1,1,1,231956,0,0,0,0,0,0,0,0,0,0,0,0,1,0,1,0,0,1,0,0,0,0,0,0,0,0,0,0,0,0,0,0,0,0,0,0,0,0,0,0,0,0,0,0,0,0,0,0,0,0,0,0,0,0,0,0,231956,-2166,0,-3610,0,1440,1480,1520,1440,0,0,0,0,0,0,0,0,21,993,821,0,0,2,0,0,0,0,0,0,0,2782,2782,1,0,0,0,0,0,77,-1367,0,0,0,0,538,3000,0,-1042,3000,0,-22,3000,0,0,0,0,0,49,0,0,0,0,0,0,0,0,0,0,0
232532,25,1,4,0,256,255,35,0,10,0,1,0,0,0,1,0,0,0,0,1,0,0,0,4,409,0,211,6,1,1,13,445,1137962924,229316811,18326,232532,0,0,-44,0,0,0,0,0,0,0,4,2,0,0,1190,1190,1190,1190,1000,0,0,0,2226,2178,2174,2198,-12,23,-440,-437,0,43,18,-997,0,0,-1,49,-9.493563,-48,73,0,0,50,0,10.51298,0.8953209,0,0,1137963011,229317756,0,0,0,6,22,296251200,2294,1,3,0,7,42,10.4528,0.9626551,-4373,-1,0,1467,0,0,0,0,0,0,0,0,0,0,0,0,0,0,0,0,0,0,0,0,0,0,0,0,0,0,0,0,0,0,0,0,0,0,0,0,0,0,0,0,0,0,0,0,0,0,0,0,0,0,0,0,0,0,0,0,0,0,0,0,0,0,0,0,0,0,0,0,0,0,0,0,0,0,0,0,0,0,0,0,0,0,0,0,0,0,0,0,0,0,0,0,0,0,0,0,0,0,0,0,0,0,0,0,0,0,0,0,0,0,0,0,0,0,0,0,0,0,0,0,0,0,0,0,0,0,0,0,0,0,0,0,0,0,0,0,0,0,0,0,0,0,0,0,0,0,549494129,1,2,2,0,0,0,0,0,0,0,0,0,0,0,0,0,0,0,0,0,0,0,0,0,0,0,0,0,0,0,0,0,0,0,0,0,0,0,0,0,0,0,0,19,0,0,17,0,0,1,0,0,49,2,0,0,0,0,0,0,31,0,0,0,0,0,0,0,0,0,0,0,0,0,0,0,0,0,0,0,0,0,0,0,0,2,0,0,0,0,0,0,0,2,1,48,0,3,1,64,0,0,164,0,0,0,0,0,1000,0,0,0,1000,8,0,1,1,0,2057,2198,2180,2166,2226,4531,4525,4540,4541,84,110,149,62,2867,3002,3010,3170,2866,3003,3012,3171,1,1,1,1,232456,0,0,124,0,0,0,0,0,0,0,0,0,1,0,1,0,0,2,0,0,0,0,0,0,0,0,0,0,0,0,0,0,0,0,0,0,0,0,0,0,0,0,0,0,0,0,0,0,0,0,0,0,0,0,0,0,232456,-2718,0,-4163,0,1440,1480,1520,1440,0,0,0,0,0,0,0,0,58,993,2294,0,0,2,0,0,0,0,0,0,0,2775,2776,1,0,0,0,0,0,77,-1367,0,0,0,0,538,3000,0,-1039,3000,0,-22,3000,0,0,0,0,0,49,0,0,0,0,0,0,0,0,0,0,0
233033,25,1,5,72,256,256,36,0,10,0,1,0,0,0,1,0,0,0,0,2,0,0,0,4,409,0,211,6,1,1,13,351,1137963011,229317757,27818,233032,0.2,-0.4,-44,0,0,0,0,0,0,0,4,2,0,0,1190,1190,1190,1190,1000,0,0,0,2226,2182,2180,2202,-12,23,-440,-436,-691,43,18,-997,0,0,-2,49,-9.493311,-48,1,1,0,50,0,10.52152,0.8952338,0,0,1137963011,229317757,0,0,0,6,22,296251600,2294,1,3,0,7,42,10.4528,0.9626551,-4373,0,0,1467,0,0,0,0,0,0,0,232999,229317760,1137963049,27818,229317723,1137963007,27838,0,0,0,0,229317766,1137963042,27818,0,0,0,0,227,10,0,22,22,6,6,6,6,0,0,1,42,41,-436,-436,-436,-92,249,-121,240,10.4528,0.9626551,10.44951,0.9644146,0,0,0,0,6,3,1,1,-4647,1,0,3,20,0,0,0,0,249,-108,-4401,2,0,1,10.4532,0.962745,-9.493741,0,0,100,100,7,1,-159,-209,-229,-230,2,-9.491329,27818,-3,-3,0,1,0,0,0,0,0,0,0,0,0,0,0,0,0,0,0,0,0,0,0,0,0,0,0,0,0,0,0,0,0,0,0,0,0,0,0,0,0,0,0,0,0,0,0,0,0,0,0,0,0,0,0,0,0,549494129,1,16,2,0,0,0,0,0,0,0,0,0,0,0,0,0,0,0,0,0,0,0,0,0,0,0,0,0,0,0,0,0,0,0,0,0,0,0,0,1,0,0,0,19,0,0,17,0,0,1,0,0,49,2,0,0,0,0,0,0,40,0,0,0,0,0,0,0,0,0,0,0,0,0,0,0,0,0,0,0,0,0,0,0,0,2,0,0,0,0,0,0,0,2,1,48,0,3,1,80,0,0,212,0,0,0,0,0,1000,0,0,0,1000,8,0,1,1,0,2057,2204,2182,2180,2226,4531,4525,4540,4542,86,112,114,109,2879,3012,2985,3167,2880,3010,2984,3168,1,1,1,1,232956,0,0,212,0,0,0,0,0,0,0,0,0,1,0,1,0,0,2,0,0,0,0,0,0,0,0,0,0,0,0,0,0,0,0,0,0,0,0,0,0,0,0,0,0,0,0,0,0,0,0,0,0,0,0,0,0,232956,-3197,0,-4642,0,1440,1480,1520,1440,0,0,0,0,0,0,0,0,46,993,1832,0,0,2,0,0,0,0,0,0,0,2776,2775,1,0,0,0,0,0,77,-1367,0,0,0,0,539,3000,0,-1039,3000,0,-22,3000,0,0,0,0,0,49,0,0,0,0,0,0,0,0,0,0,0
233534,25,1,6,572,256,255,36,0,10,0,1,0,0,0,1,0,0,0,0,2,0,0,0,4,409,0,211,6,1,1,13,453,1137963011,229317757,27818,233534,0.3412975,-0.7724405,-44,0,0,0,0,0,0,0,4,2,0,0,1190,1219,1267,1211,1000,0,0,0,2230,2182,2442,2204,-12,23,-439,-438,1437,43,18,-997,0,0,-1,49,-9.494157,-47,11,1,0,50,0,10.52322,0.8953857,0,0,1137963011,229317757,-0.007,0,0,6,22,296252200,2294,2,3,0,7,42,10.4528,0.9626551,-4373,0,0,1467,0,0,0,0,0,0,0,233499,229317760,1137963049,27824,229317723,1137963007,27840,0,0,0,0,229317766,1137963042,27819,0,0,0,0,227,10,0,22,22,6,6,6,6,0,1,1,42,40,-437,-437,-437,-97,259,-123,238,10.4528,0.9626551,10.45137,0.9646043,0,1,0,0,6,3,1,1,-4541,1,0,3,20,0,0,0,0,246,-105,-4398,32,0,3,10.51393,0.9638007,-9.494047,0,0,100,100,7,1,-155,-201,-230,-230,1,-9.497271,27824,-3,-3,0,1,0,32762,32772,32898,32773,32847,33780,32804,32835,33775,32789,32834,33758,32771,32768,32764,32775,32770,32773,100,100,100,100,38,42,42,43,355,0,0,0,0,1,29,45,2,45,2,0,0,0,0,24,2,1,1,1,15420,0,0,1754,0,131,549494129,1,16,2,0,0,0,0,0,0,0,0,0,0,0,0,0,0,0,0,0,0,0,0,0,0,0,0,0,0,0,0,0,0,0,0,0,0,0,0,1,0,0,0,19,0,0,17,0,0,1,0,0,49,2,0,0,0,0,0,0,50,0,0,0,0,0,0,0,0,0,0,0,0,0,0,0,0,0,0,0,0,0,0,0,0,2,0,0,0,0,0,0,0,2,1,48,0,3,1,97,0,0,188,0,0,0,0,0,1000,0,0,0,1000,8,0,1,1,0,2057,2202,2186,2198,2226,4531,4525,4540,4542,99,87,187,140,2881,3013,2965,3150,2883,3013,2967,3149,1,1,1,1,233456,0,0,192,0,19,0,0,0,0,0,0,1,1,0,1,0,0,2,0,0,0,0,0,0,0,0,0,0,0,0,0,0,0,0,1,0,0,0,0,0,0,0,1052.227,89.53698,0,0,0,0,0,0,0,0,0,0,0,0,233456,-3105,0,-4550,0,1440,1480,1520,1440,0,0,19,0,0,0,0,0,47,993,1849,0,0,16,0,0,0,0,0,0,0,2774,2772,1,0,0,0,0,0,77,-1367,0,0,0,0,543,3000,0,-1033,3000,0,-22,3000,0,0,0,0,0,49,0,0,0,0,0,0,0,0,0,0,0
234033,25,1,7,1072,255,241,35,0,10,0,1,0,0,0,1,0,0,0,0,1,0,0,0,4,409,0,211,6,1,1,13,1820,1137963011,229317757,27818,234032,-0.0351082,0.2288867,-44,0,0,0,0,0,0,0,4,2,0,0,1569,1568,1430,1476,1000,0,0,0,6136,5346,5802,4260,6,-21,-434,-436,897,48,16,-1056,29,-52,6,49,-9.513531,-36,173,0,-32,16,0,10.52972,0.8927358,1,-1,1137963011,229317757,-0.007,0,0,6,22,296252600,2294,2,3,0,7,42,10.46392,0.9626551,-4294,0,0,1467,0,0,0,0,0,0,0,234000,229317760,1137963049,27826,229317724,1137963007,27850,0,0,0,0,229317765,1137963042,27829,0,0,0,0,227,10,0,22,22,6,6,6,6,0,0,1,42,40,-433,-433,-433,-105,238,-122,235,10.46392,0.9626551,10.45425,0.9632526,1,0,0,0,6,3,1,1,-4708,0,-2,3,20,0,0,0,0,307,-350,-4351,40,-2,-13,10.54606,0.9628912,-9.503468,0,0,100,100,7,6,-154,-109,-230,-230,-5,-9.499645,27826,-3,-3,0,1,0,32842,32807,32975,32695,32875,33876,32728,32861,33869,32715,32864,33847,32596,32643,32730,32574,32608,32740,100,100,100,100,38,42,42,43,356,0,0,0,0,1,29,45,2,45,2,0,0,0,0,24,-4,1,1,1,16448,0,0,1754,0,131,549494129,1,16,2,0,0,0,0,0,0,0,0,0,0,0,0,0,0,0,0,0,0,0,0,0,0,0,0,0,0,0,0,0,0,0,0,0,0,0,0,1,0,0,0,19,0,0,17,0,0,1,0,0,49,2,0,0,0,0,0,0,59,0,0,0,0,0,0,0,0,0,0,0,0,0,0,0,0,0,0,0,0,0,0,0,0,2,0,0,0,0,0,0,0,2,1,48,0,3,1,114,0,0,140,0,0,0,0,0,1000,0,0,0,1000,8,0,1,1,0,2057,3106,4234,4788,4992,4531,4526,4540,4542,1103,907,821,653,2856,3013,2957,3147,2858,3014,2957,3147,1,1,1,1,233956,0,0,168,0,47,-62,-11,-11,0,0,0,1,1,0,3,0,0,2,0,0,0,0,0,0,0,0,0,0,0,0,0,0,0,0,3,0,0,0,0,0,0,0,1052.227,89.53698,0,0,0,0,0,0,0,0,0,0,0,0,233956,-3185,0,-4629,0,1440,1480,1520,1440,0,0,47,0,0,0,0,0,139,993,5462,0,0,16,0,0,0,0,0,0,0,2775,2776,1,0,0,0,0,0,77,-1367,0,0,0,0,80,3000,0,-284,3000,0,0,3000,0,0,0,0,0,49,0,0,2,0,0,0,0,0,0,0,0
234533,25,1,8,1572,246,250,35,0,10,0,1,0,0,0,1,0,0,0,0,20,0,0,0,4,409,0,211,6,1,1,13,1796,1137963011,229317757,27818,234532,0.2144461,5.613562,-44,0,0,0,0,0,0,0,4,2,0,0,1407,1375,1366,1368,1000,0,80,0,4872,6972,4952,6724,-1,-2,-440,-442,-468,3,-6,-1090,-19,10,-10,80,-9.970232,-48,-178,-134,-86,-28,0,10.60355,0.8234482,18,-19,1137963004,229317764,-0.432,0,0,6,21,296253200,2294,1,3,0,7,42,10.53064,0.9012091,-4373,9,-6,1467,0,0,0,0,0,0,0,234499,229317762,1137963047,28061,229317726,1137963004,28102,0,0,0,0,229317771,1137963036,28256,0,0,0,0,227,10,0,22,22,6,6,6,6,10,-7,-134,42,39,-437,-437,-437,16,46,23,-170,10.48616,0.9421731,10.51679,0.9081591,9,-6,16,-16,6,3,1,1,-5607,-134,-103,3,20,0,0,0,0,111,-184,-4393,43,-22,-87,10.62854,0.8926381,-9.938462,0,0,100,100,7,0,-205,-202,-253,-247,-90,-9.726336,28061,-3,-3,0,1,0,32752,32765,32878,32743,32781,33534,32791,32761,33534,32797,32753,33495,32657,32727,32789,32700,32710,32803,100,100,100,100,38,42,42,43,352,1,0,0,0,1,29,45,2,45,2,0,0,0,0,24,-3134,14,13,14,16448,0,0,1754,0,131,549494129,1,16,2,0,0,0,0,0,0,0,0,0,0,0,0,0,0,0,0,0,0,0,0,0,0,0,0,0,0,0,0,0,0,0,0,0,0,0,0,1,0,0,0,19,0,0,17,0,0,1,0,0,49,2,0,0,0,0,0,0,69,0,0,0,0,0,0,0,0,0,0,0,0,0,0,0,0,0,0,0,0,0,0,0,0,2,0,0,0,0,0,0,0,2,1,48,0,3,0,130,0,0,0,0,0,0,0,0,1000,0,0,0,1000,8,0,1,1,0,2057,6208,6550,5502,5338,4530,4525,4540,4541,264,1108,262,909,2848,3013,2946,3090,2849,3013,2946,3091,1,1,1,1,234457,0,0,0,0,39,-43,-95,-7,0,0,0,1,1,0,3,0,0,2,0,0,0,0,0,0,0,0,0,0,0,0,8,0,0,0,3,0,0,0,0,0,0,0,1052.227,89.53698,0,0,0,0,0,0,0,0,0,0,0,0,234457,-4183,0,-5631,0,1440,1480,1520,1440,0,0,39,0,0,0,24,0,593,993,24126,0,0,16,0,0,0,0,0,-1,0,2764,2764,1,0,0,0,0,0,77,-1367,1,0,0,0,87,3000,0,958,3000,0,3,3000,0,0,0,0,0,78,0,0,2,0,0,0,0,0,0,0,0
235033,25,1,9,2072,250,242,35,0,10,0,1,0,0,0,1,0,0,0,0,13,0,0,0,4,409,0,211,6,1,1,13,1921,1137963011,229317757,27818,235033,0.05941515,6.062227,-44,0,0,0,0,0,0,0,4,2,0,0,1536,1537,1468,1478,1000,0,82,0,6592,7120,6336,6886,2,25,-437,-436,-380,1,-5,-940,8,63,5,82,-10.16513,-57,-209,-18,-51,-10,0,10.6959,0.7280917,13,-14,1137962996,229317771,-0.5930001,0,0,6,21,296253600,2294,1,3,0,7,42,10.60848,0.829522,-4449,10,-10,1467,0,0,0,0,0,0,0,234999,229317773,1137963036,28419,229317735,1137962994,28471,0,0,0,0,229317780,1137963026,28485,0,0,0,0,227,10,0,21,22,6,6,6,6,10,-10,-18,42,39,-348,-435,-348,121,121,20,-21,10.60848,0.829522,10.61367,0.8058659,10,-9,17,-17,6,3,1,1,-4889,-18,-14,3,20,0,0,0,0,88,243,-4375,12,-11,-33,10.6448,0.8029835,-10.15129,0,0,100,100,7,1,-91,-302,-290,-288,-36,-10.09993,28419,-3,-2,0,1,0,32775,32779,32909,32740,32804,34017,32785,32791,34017,32765,32791,33986,32778,32742,32756,32773,32744,32764,100,100,100,100,38,42,42,43,266,1,1,0,0,1,29,47,5,48,4,0,0,0,0,24,1893,14,12,14,13364,0,0,1754,0,131,549494129,1,16,2,0,0,0,0,0,0,0,0,0,0,0,0,0,0,0,0,0,0,0,0,0,0,0,0,0,0,0,0,0,0,0,0,0,0,0,0,1,0,0,0,19,0,0,17,0,0,1,0,0,49,2,0,0,0,0,0,0,79,0,0,0,0,0,0,0,0,0,0,0,0,0,0,0,0,0,0,0,0,0,0,0,0,2,0,0,0,0,0,0,0,2,1,48,0,3,1,146,0,0,116,0,0,0,0,0,1000,0,0,0,1000,8,0,1,1,0,2057,6212,6452,6018,6126,4531,4526,4540,4542,1032,1305,977,1135,2870,2988,2951,3140,2869,2988,2951,3142,1,1,1,1,234956,0,0,116,0,52,-51,-26,-7,0,0,0,1,1,0,3,0,0,2,0,0,0,0,0,0,0,0,0,0,0,0,22,0,0,0,3,0,0,0,0,0,0,0,1052.227,89.53698,0,0,0,0,0,0,0,0,0,0,0,0,234956,-3536,0,-5024,0,1440,1480,1520,1440,0,0,52,0,0,0,23,0,383,992,15359,0,0,16,0,0,0,0,0,-1,0,2758,2760,1,0,0,0,0,0,81,-23,1,0,0,0,-128,3000,0,-1112,3000,0,5,3000,0,0,0,0,0,82,0,0,2,0,0,0,0,0,0,0,0
235533,25,1,10,2572,247,245,36,0,10,0,1,0,0,0,1,0,0,0,0,2,0,0,0,4,409,0,211,6,1,1,13,1062,1137963011,229317757,27818,235533,-0.1306847,0.3568591,-44,0,0,0,0,0,0,0,4,2,0,0,1499,1498,1425,1425,1000,0,118,0,6290,6836,6118,6866,0,14,-438,-441,-388,4,-3,-1082,-2,-2,-4,118,-10.60161,-63,-120,-103,-100,-51,0,10.71273,0.7236032,-3,4,1137962994,229317774,-1.047,0,0,6,22,296254200,2294,1,3,0,7,41,10.64184,0.798799,-4449,-2,5,1467,0,0,0,0,0,0,0,235500,229317777,1137963032,28680,229317739,1137962990,28748,0,0,0,0,229317782,1137963025,28899,0,0,0,0,227,10,0,22,21,6,6,6,6,0,2,-104,41,44,-407,-437,-407,53,275,25,251,10.65296,0.7885579,10.64329,0.7878053,0,2,0,1,6,3,1,1,-3977,-104,-93,3,20,0,0,0,0,66,202,-4385,-6,8,-97,10.64409,0.796129,-10.56662,0,0,100,100,7,12,-148,-356,-317,-312,-91,-10.36189,28680,-3,-2,0,1,0,32755,32777,32881,32762,32776,33864,32795,32764,33859,32780,32765,33843,32722,32755,32772,32725,32769,32786,100,100,100,100,38,42,42,43,232,0,0,0,0,1,29,47,5,48,4,0,0,0,0,24,-1534,10,8,10,16448,0,0,1754,0,131,549494129,1,16,2,0,0,0,0,0,0,0,0,0,0,0,0,0,0,0,0,0,0,0,0,0,0,0,0,0,0,0,0,0,0,0,0,0,0,0,0,1,0,0,0,19,0,0,17,0,0,1,0,0,49,2,0,0,0,0,0,0,88,0,0,0,0,0,0,0,0,0,0,0,0,0,0,0,0,0,0,0,0,0,0,0,0,2,0,0,0,0,0,0,0,2,1,48,0,3,1,160,0,64,116,0,0,0,0,0,1000,0,0,0,1000,8,0,1,1,0,2057,6648,6672,6116,6316,4530,4525,4539,4542,791,1112,837,1108,2851,3009,2975,3110,2852,3007,2975,3108,1,1,1,1,235457,48,0,116,0,46,-92,-95,-5,0,0,0,0,1,0,3,0,0,2,0,0,0,0,0,0,0,0,0,0,0,0,0,0,0,0,3,0,0,0,0,0,0,0,1052.227,89.53698,0,0,0,0,0,0,0,0,0,0,0,0,235457,-2583,0,-4079,0,1440,1480,1520,1440,0,0,46,0,0,0,2,0,527,992,21369,0,0,16,0,0,0,0,0,0,0,2753,2753,1,0,0,0,0,0,106,-20,1,0,0,0,-67,3000,0,-1083,3000,0,2,3000,0,0,0,0,0,107,0,0,2,0,0,0,0,0,0,0,0
236033,25,1,11,3072,248,248,36,0,10,0,1,0,0,0,1,0,0,0,0,1,0,0,0,4,410,0,211,6,1,1,13,710,1137963011,229317757,27818,236032,-0.1730887,-11.79119,-44,0,0,0,0,0,0,0,4,2,0,0,1450,1445,1400,1394,1000,0,172,0,6040,6250,6006,6190,-1,-61,-440,-440,-432,7,-1,-984,-5,-125,-4,172,-11.13045,-67,-95,-100,-88,-40,0,10.68881,0.7495294,1,0,1137962997,229317772,-1.455,0,0,6,22,296254600,2294,1,3,0,7,41,10.60848,0.819281,-4294,-3,4,1467,0,0,0,0,0,0,0,235999,229317774,1137963035,29267,229317738,1137962993,29330,0,0,0,0,229317781,1137963028,29418,0,0,0,0,227,10,0,22,22,6,6,6,6,-3,4,-102,41,44,-479,-439,-480,-2,96,8,78,10.60848,0.819281,10.616,0.8190974,-2,4,0,4,6,3,1,1,-3539,-100,-100,3,20,0,0,0,0,32,-504,-4404,0,-1,-96,10.6072,0.8226964,-11.10233,0,0,100,100,7,15,-149,-398,-374,-362,-101,-10.93377,29267,-3,-2,0,1,0,32777,32798,32890,32751,32778,33762,32782,32760,33757,32768,32768,33732,32561,32760,32774,32538,32766,32783,100,100,100,100,38,42,42,43,205,0,0,0,0,1,29,47,5,48,4,0,0,0,0,24,-169,13,12,13,16448,0,0,1754,0,131,549494129,1,16,2,0,0,0,0,0,0,0,0,0,0,0,0,0,0,0,0,0,0,0,0,0,0,0,0,0,0,0,0,0,0,0,0,0,0,0,0,1,0,0,0,19,0,0,17,0,0,1,0,0,49,2,0,0,0,0,0,0,98,0,0,0,0,0,0,0,0,0,0,0,0,0,0,0,0,0,0,0,0,0,0,0,0,2,0,0,0,0,0,0,0,2,1,48,0,3,1,176,0,416,0,0,0,0,0,0,1000,0,0,0,1000,8,0,1,1,0,2057,6686,6644,5920,5888,4530,4525,4540,4542,882,850,910,942,2874,2986,2971,3096,2874,2988,2972,3096,1,1,1,1,235957,336,0,24,0,43,-82,-96,0,0,0,0,0,1,0,3,0,0,2,0,0,0,0,0,0,0,0,0,0,0,0,0,0,0,0,3,0,0,0,0,0,0,0,1052.227,89.53698,0,0,0,0,0,0,0,0,0,0,0,0,235957,-2112,0,-3557,0,1440,1480,1520,1440,0,0,43,0,0,0,3,0,503,991,20291,0,0,16,0,0,0,0,0,1,0,2755,2755,1,0,0,0,0,0,173,-27,1,0,0,0,73,3000,0,1609,3000,0,4,3000,0,0,0,0,0,174,0,0,2,0,0,0,0,0,0,0,0
236534,25,1,12,3572,249,246,36,0,10,0,1,0,0,0,1,0,0,0,0,7,2048,0,0,4,410,0,211,6,1,1,13,820,1137963011,229317757,27818,236534,0.05480542,-9.244129,-44,0,0,0,0,0,0,0,4,2,0,0,1474,1472,1417,1416,1000,0,223,0,5550,6398,5594,6404,0,-130,-440,-437,-431,2,-2,-870,1,-158,-4,223,-11.40128,-70,-59,-7,-25,20,0,10.83835,0.6063879,50,-47,1137962983,229317785,-1.94,0,0,6,23,296255200,2294,1,3,0,7,38,10.77528,0.6963888,-4373,63,-48,1467,0,0,0,0,0,0,0,236499,229317779,1137963030,29652,229317743,1137962988,29725,0,0,0,0,229317792,1137963015,29683,0,0,0,0,227,10,0,23,22,6,6,6,6,29,-31,-60,41,43,-431,-440,-432,-96,-702,-13,-702,10.66408,0.7680759,10.72426,0.7149714,28,-29,38,-34,6,3,1,1,-3473,-56,-36,3,20,0,0,0,0,47,-1321,-4408,58,-59,-26,10.75205,0.676757,-11.39251,0,0,100,100,7,25,-134,-424,-410,-407,-80,-11.29427,29652,-3,-2,0,1,0,32770,32784,32894,32745,32783,33729,32788,32768,33733,32740,32768,33693,32720,32771,32769,32717,32772,32775,100,100,100,100,39,42,42,43,198,0,0,0,0,1,29,47,5,48,4,0,0,0,0,24,892,7,7,7,15420,0,0,1754,0,131,549494129,1,16,2,0,0,0,0,0,0,0,0,0,0,0,0,0,0,0,0,0,0,0,0,0,0,0,0,0,0,0,0,0,0,0,0,0,0,0,0,1,0,0,0,19,0,0,17,0,0,1,0,0,49,2,0,0,0,0,0,0,108,0,0,0,0,0,0,0,0,0,0,0,0,0,0,0,0,0,0,0,0,0,0,0,0,2,0,0,0,0,0,0,0,2,1,48,0,3,1,193,128,488,0,0,0,0,0,0,1000,0,0,0,1000,8,0,1,1,0,2057,6312,6208,5452,5418,4531,4525,4539,4541,720,950,742,900,2844,2988,2936,3107,2841,2988,2936,3107,1,1,1,1,236456,488,120,0,0,44,-31,-31,2,0,0,0,0,1,0,3,0,0,2,0,0,0,0,0,0,0,0,0,0,0,0,0,0,0,0,3,0,0,0,0,0,0,0,1052.227,89.53698,0,0,0,0,0,0,0,0,0,0,0,0,236456,-2035,0,-3480,0,1440,1480,1520,1440,0,0,44,0,0,0,54,0,428,991,17208,0,0,16,0,0,0,0,0,1,0,2755,2757,1,0,0,0,0,0,211,-23,1,0,0,0,21,3000,0,5729,3000,0,4,3000,0,0,0,0,0,217,0,0,2,0,0,0,0,0,0,0,0
237033,25,1,13,4072,248,246,36,0,10,0,1,0,0,0,1,0,0,0,0,7,2048,0,0,4,411,0,211,6,1,1,13,1101,1137963011,229317757,27818,237032,1.05596,-2.749961,-44,0,0,0,0,0,0,0,4,2,0,0,1467,1477,1420,1414,1000,0,229,0,5856,6566,5810,6598,2,-88,-439,-431,-383,-10,-4,-994,2,78,0,229,-11.48206,-74,-64,-31,-11,31,0,11.36026,0.1435359,118,-108,1137962949,229317820,-2.033,0,0,6,23,296255600,2294,1,3,0,6,38,11.13112,0.3686764,-4373,120,-101,1467,0,0,0,0,0,0,0,237000,229317821,1137962991,29825,229317784,1137962949,29853,0,0,0,0,229317837,1137962972,29777,0,0,0,0,227,10,0,23,22,6,6,6,6,120,-101,-29,38,40,-406,-440,-403,54,-1194,8,-1274,11.13112,0.3686764,11.19254,0.2995416,120,-100,108,-98,6,3,1,1,-3259,-31,-15,3,20,0,0,0,0,72,-945,-4398,129,-120,-11,11.27456,0.2235044,-11.47614,0,0,100,100,7,34,-92,-456,-428,-424,-24,-11.47201,29825,-3,-2,0,1,0,32715,32772,32879,32723,32786,33777,32736,32781,33758,32782,32752,33786,32898,32773,32763,32902,32781,32771,100,100,100,100,39,42,42,43,30,0,0,0,0,1,29,0,19,0,18,0,0,0,0,24,491,-2,-2,-2,14392,0,0,1754,0,131,549494129,1,16,2,0,0,0,0,0,0,0,0,0,0,0,0,0,0,0,0,0,0,0,0,0,0,0,0,0,0,0,0,0,0,0,0,0,0,0,0,1,0,0,0,19,0,0,17,0,0,1,0,0,49,2,0,0,0,0,0,0,117,0,0,0,0,0,0,0,0,0,0,0,0,0,0,0,0,0,0,0,0,0,0,0,0,2,0,0,0,0,0,0,0,2,1,48,0,3,1,209,184,336,0,0,0,0,0,0,1000,0,0,0,1000,8,0,1,1,0,2057,6638,6646,5886,6016,4531,4525,4539,4542,719,1050,731,885,2851,2958,2916,3129,2851,2957,2915,3128,1,1,1,1,236956,368,168,0,0,44,-11,-13,0,0,0,0,0,1,0,3,0,0,2,0,0,0,0,0,0,0,0,0,0,0,0,0,0,0,0,3,0,0,0,0,0,0,0,1052.227,89.53698,0,0,0,0,0,0,0,0,0,0,0,0,236956,-1847,0,-3292,0,1440,1480,1520,1440,0,0,44,0,0,0,149,0,450,991,18184,0,0,16,0,0,0,0,0,3,0,2768,2767,1,0,0,0,0,0,226,-23,1,0,0,0,-57,3000,0,4265,3000,0,-9,3000,0,0,0,0,0,230,0,0,2,0,0,0,0,0,0,0,0
237533,25,1,14,4572,248,245,36,0,10,0,1,0,0,0,1,0,0,0,0,13,2048,0,0,4,411,0,211,6,1,1,13,1664,1137963011,229317757,27818,237533,3.342451,7.706968,-44,0,0,0,0,0,0,0,4,2,0,0,1428,1537,1480,1413,1000,0,230,0,6904,5758,5312,6788,84,37,-427,-433,-422,-17,-5,-976,263,266,-4,230,-11.51252,-76,-47,41,3,45,0,12.13879,-0.4635475,162,-106,1137962879,229317902,-1.865,0,0,6,23,296256200,2294,1,3,0,7,38,12.03184,-0.3584354,-4442,166,-110,1467,0,0,0,0,0,0,0,237499,229317871,1137962944,29810,229317834,1137962901,29893,0,0,0,0,229317905,1137962911,29910,0,0,0,0,227,10,0,23,22,6,6,6,6,143,-142,51,38,40,-423,-428,-413,-90,-811,51,-847,11.69824,-0.1126511,11.93649,-0.3199991,147,-140,152,-123,6,3,1,1,-2747,10,0,3,20,0,0,0,0,1109,307,-4283,176,-96,9,12.05276,-0.3836984,-11.51425,0,0,100,100,7,42,-94,-480,-431,-431,-2,-11.50444,29810,-2,-2,0,1,0,32839,32827,32916,32736,32821,33750,32775,32816,33742,32734,32795,33726,33127,32285,32766,33125,32309,32767,100,100,100,100,39,42,42,43,4,1,1,0,0,1,29,0,19,0,18,0,0,0,0,24,874,-4,-4,-3,16448,0,0,1754,0,131,549494129,1,16,2,0,0,0,0,0,0,0,0,0,0,0,0,0,0,0,0,0,0,0,0,0,0,0,0,0,0,0,0,0,0,0,0,0,0,0,0,1,0,0,0,19,0,0,17,0,0,1,0,0,49,2,0,0,0,0,0,0,127,0,0,0,0,0,0,0,0,0,0,0,0,0,0,0,0,0,0,0,0,0,0,0,0,2,0,0,0,0,0,0,0,2,1,48,0,3,1,225,264,0,0,0,0,0,0,0,1000,0,0,0,1000,8,0,1,1,0,2057,6368,6118,5888,6346,4530,4525,4539,4542,1110,710,613,982,2856,2984,2900,3111,2858,2984,2900,3111,1,1,1,1,237457,0,208,0,0,45,-4,1,-31,0,0,0,0,1,0,3,0,0,2,0,0,0,0,0,0,0,0,0,0,0,0,0,0,0,0,3,0,0,0,0,0,0,0,1052.227,89.53698,0,0,0,0,0,0,0,0,0,0,0,0,237457,-1349,0,-2823,0,1440,1480,1520,1440,0,0,45,0,0,0,195,0,472,991,19041,0,0,16,0,0,0,0,0,18,0,2774,2774,1,0,0,0,0,0,223,-26,1,0,0,0,-5361,3000,0,-1072,3000,0,233,3000,0,0,0,0,0,229,0,0,2,0,0,0,0,0,0,0,0
238033,25,1,15,5072,247,247,35,0,10,0,1,0,0,0,1,0,0,0,0,28,2048,0,0,4,412,0,211,6,1,1,13,2117,1137963011,229317757,27818,238033,10.96659,4.527661,-44,0,0,0,0,0,0,0,4,2,0,0,1460,1464,1419,1424,1000,0,233,0,5756,6010,5608,6356,117,40,-436,-434,-443,-16,-28,-1015,83,11,-21,233,-11.55952,-77,-21,15,2,53,0,13.05305,-0.7516268,174,-29,1137962853,229317967,-1.934,0,0,6,22,296256600,2294,1,3,0,7,37,12.74352,-0.6349428,-4518,186,-55,1467,0,0,0,0,0,0,0,237999,229317965,1137962892,29825,229317927,1137962851,29949,0,0,0,0,229317987,1137962881,29955,0,0,0,0,227,10,0,22,22,6,6,6,6,165,-49,20,37,42,-417,-438,-433,975,331,670,363,12.74352,-0.6349428,12.84171,-0.6658964,164,-47,170,-46,6,3,1,1,-3294,15,-18,3,20,0,0,0,0,1252,401,-4361,189,-13,3,12.97763,-0.6685093,-11.55467,0,0,100,100,7,48,-154,-492,-437,-432,-17,-11.57123,29825,-2,-2,0,1,0,32737,32797,32815,32753,32756,33741,32785,32747,33757,32778,32766,33712,32719,32665,32791,32717,32640,32799,100,100,100,100,39,42,42,43,2,1,2,0,0,1,29,0,19,0,18,0,0,0,0,24,-1875,-26,-28,-26,13364,0,0,1754,0,131,549494129,1,16,2,0,0,0,0,0,0,0,0,0,0,0,0,0,0,0,0,0,0,0,0,0,0,0,0,0,0,0,0,0,0,0,0,0,0,0,0,1,0,0,0,19,0,0,17,0,0,1,0,0,49,2,0,0,0,0,0,0,136,0,0,0,0,0,0,0,0,0,0,0,0,0,0,0,0,0,0,0,0,0,0,0,0,2,0,0,0,0,0,0,0,2,1,48,0,3,1,243,464,0,0,0,0,0,0,0,1000,0,0,0,1000,8,0,1,1,0,2057,6896,6210,5580,5998,4530,4524,4539,4542,524,839,789,812,2863,2978,2947,3132,2862,2977,2947,3132,1,1,1,1,237956,0,472,0,0,41,-1,-13,-14,0,0,0,0,1,0,3,0,0,2,0,0,0,0,0,0,0,0,0,0,0,0,0,0,0,0,3,0,0,0,0,0,0,0,1052.227,89.53698,0,0,0,0,0,0,0,0,0,0,0,0,237956,-1779,0,-3193,0,1440,1480,1520,1440,0,0,41,0,0,0,175,0,503,990,20393,0,0,16,0,0,0,0,0,86,0,2779,2779,1,0,0,0,0,0,227,-32,1,0,0,0,-5249,3000,0,-1900,3000,0,405,3000,0,0,0,0,0,233,0,0,2,0,0,0,0,0,0,0,0
238533,25,1,16,5572,247,246,36,0,10,0,1,0,0,0,1,0,0,0,0,13,2048,0,0,4,412,0,211,6,1,1,13,2367,1137963011,229317757,27818,238532,9.955644,3.696847,-44,0,0,0,0,0,0,0,4,2,0,0,1457,1479,1410,1433,1000,0,235,0,6058,6608,5618,6286,101,23,-433,-430,-450,-12,-42,-1042,-32,-34,9,235,-11.57567,-77,1,0,-3,43,0,14.06061,-0.6388265,205,46,1137962862,229318075,-1.976,0,0,6,23,296257200,2294,1,3,0,7,37,13.91112,-0.5734967,-4442,205,56,1467,0,0,0,0,0,0,0,238500,229318033,1137962889,29838,229317995,1137962849,29945,0,0,0,0,229318077,1137962889,29958,0,0,0,0,227,10,0,23,22,6,6,6,6,201,34,0,37,42,-436,-436,-450,1275,437,1138,395,13.49968,-0.6656658,13.82959,-0.6105134,202,33,200,34,6,3,1,1,-4020,1,-7,3,20,0,0,0,0,1078,227,-4341,214,62,0,13.96676,-0.5545108,-11.57236,0,0,100,100,7,54,-111,-492,-438,-436,3,-11.57412,29838,-2,-2,0,1,0,32773,32796,32827,32709,32810,33713,32740,32780,33734,32723,32767,33708,32758,32799,32745,32759,32837,32753,100,100,100,100,39,42,42,43,2,2,2,0,0,1,29,0,19,0,18,0,0,0,0,24,29,-20,-23,-18,16448,0,0,1754,0,131,549494129,1,16,2,0,0,0,0,0,0,0,0,0,0,0,0,0,0,0,0,0,0,0,0,0,0,0,0,0,0,0,0,0,0,0,0,0,0,0,0,1,0,0,0,19,0,0,17,0,0,1,0,0,49,2,0,0,0,0,0,0,146,0,0,0,0,0,0,0,0,0,0,0,0,0,0,0,0,0,0,0,0,0,0,0,0,2,0,0,0,0,0,0,0,2,1,48,0,3,1,257,168,0,0,0,0,0,0,0,1000,0,0,0,1000,8,0,1,1,0,2057,6674,6790,5936,6202,4530,4524,4539,4541,725,920,697,870,2880,3019,2996,3153,2880,3019,2995,3152,1,1,1,1,238456,0,352,0,0,44,0,-6,-17,0,0,0,0,1,0,3,0,0,2,0,0,0,0,0,0,0,0,0,0,0,0,0,0,0,0,3,0,0,0,0,0,0,0,1052.227,89.53698,0,0,0,0,0,0,0,0,0,0,0,0,238456,-2556,0,-3988,0,1440,1480,1520,1440,0,0,44,0,0,0,204,0,567,990,22962,0,0,16,0,0,0,0,0,164,0,2764,2764,1,0,0,0,0,0,229,-33,1,0,0,0,-4508,3000,0,-1073,3000,0,195,3000,0,0,0,0,0,233,0,0,2,0,0,0,0,0,0,0,0
239033,25,1,17,6072,247,246,36,0,10,0,1,0,0,0,1,0,0,0,0,8,2048,0,0,4,412,0,211,6,1,1,13,2093,1137963011,229317757,27818,239032,-5.691501,3.761287,-44,0,0,0,0,0,0,0,4,2,0,0,1490,1407,1466,1366,1000,0,232,0,4770,6188,6910,7032,-72,18,-405,-422,-441,-8,-57,-1027,-406,-15,33,232,-11.59581,-78,-3,-20,-6,38,0,15.14352,-0.2344634,199,72,1137962894,229318155,-2.154,0,0,6,22,296257600,2294,1,3,0,7,37,14.75624,-0.2560253,-4227,220,100,1467,0,0,0,0,0,0,0,238999,229318146,1137962930,29945,229318110,1137962887,29889,0,0,0,0,229318174,1137962929,29883,0,0,0,0,227,10,0,22,23,6,6,6,6,218,100,-41,37,39,-410,-416,-421,924,258,1010,235,14.75624,-0.2560253,14.92362,-0.2229883,221,101,214,83,6,3,1,1,-3977,-20,-5,3,20,0,0,0,0,-698,155,-4123,186,68,-3,15.02415,-0.1612868,-11.59289,0,0,100,100,7,91,-85,-496,-439,-439,-2,-11.59146,29945,-2,-2,0,1,0,32762,32752,32874,32623,32816,33860,32678,32802,33852,32660,32808,33830,32707,33127,32673,32701,33161,32674,100,100,100,100,39,42,42,43,1,2,2,0,0,1,29,36,10,70,9,0,0,0,0,24,328,-5,-7,-2,16448,0,0,1754,0,131,549494129,1,16,2,0,0,0,0,0,0,0,0,0,0,0,0,0,0,0,0,0,0,0,0,0,0,0,0,0,0,0,0,0,0,0,0,0,0,0,0,1,0,0,0,19,0,0,17,0,0,1,0,0,49,2,0,0,0,0,0,0,156,0,0,0,0,0,0,0,0,0,0,0,0,0,0,0,0,0,0,0,0,0,0,0,0,2,0,0,0,0,0,0,0,2,1,48,0,3,1,273,-168,0,0,54,0,0,0,0,1000,0,0,0,1000,8,0,1,1,0,2057,5808,7326,6594,5644,4530,4525,4539,4541,680,325,1675,463,2887,3006,2989,3181,2886,3007,2988,3181,1,1,1,1,238957,0,-136,0,48,43,0,-5,316,0,0,0,0,1,0,3,0,0,2,0,0,0,0,0,0,0,0,0,0,0,0,0,0,0,0,3,0,0,0,0,0,0,0,1052.227,89.53698,0,0,0,0,0,0,0,0,0,0,0,0,238957,-2534,0,-3979,0,1440,1480,1520,1440,0,0,43,0,0,0,224,0,507,989,20565,0,0,16,0,0,0,0,0,200,0,2748,2750,1,0,0,0,0,0,228,-15,1,0,0,0,3363,3000,0,-800,3000,0,-108,3000,0,0,0,0,0,231,0,0,2,0,0,0,0,0,0,0,0
239534,25,1,18,6572,248,244,36,0,10,0,1,0,0,0,1,0,0,0,0,9,2048,0,0,4,412,0,211,6,1,1,13,1687,1137963011,229317757,27818,239534,-0.4660334,3.481086,-44,0,0,0,0,0,0,0,4,2,0,0,1444,1514,1359,1504,1000,0,231,0,5928,7204,5318,5676,-18,20,-250,-256,-295,-5,-36,-990,84,-21,321,231,-11.58636,-77,10,-3,2,44,0,15.91976,0.01887695,142,38,1137962925,229318242,-2.131,0,0,6,23,296258200,2294,1,3,0,7,37,15.75704,0.04096405,-2523,128,31,1467,0,0,0,0,0,0,0,239499,229318205,1137962953,29941,229318176,1137962904,29906,0,0,0,0,229318238,1137962956,29901,0,0,0,0,227,10,0,23,23,6,6,6,6,121,34,29,37,40,-257,-261,-267,-759,245,-658,223,15.46792,-0.03072304,15.72819,0.03856286,141,32,147,38,6,3,1,1,-3839,22,9,3,20,0,0,0,0,-213,178,-2556,130,30,7,15.7849,0.05952151,-11.58745,0,0,100,100,7,99,-70,-488,-440,-441,4,-11.59802,29941,-2,-2,0,1,0,32801,32709,32936,32702,32864,33796,32723,32850,33776,32716,32854,33755,32658,32712,32190,32657,32727,32204,100,100,100,100,39,42,42,43,1,2,2,0,0,1,29,36,10,70,9,0,0,0,0,24,733,-10,-11,-8,16448,0,0,1754,0,131,549494129,1,16,2,0,0,0,0,0,0,0,0,0,0,0,0,0,0,0,0,0,0,0,0,0,0,0,0,0,0,0,0,0,0,0,0,0,0,0,0,1,0,0,0,19,0,0,17,0,0,1,0,0,49,4,0,0,0,0,0,0,165,0,0,0,0,0,0,0,0,0,0,0,0,0,0,0,0,0,0,0,0,0,0,0,0,2,0,0,0,0,0,0,0,2,1,48,0,0,2,274,0,0,0,0,0,0,0,0,1000,0,0,0,1000,0,0,1,1,0,2057,6504,6560,5952,5916,4529,4525,4539,4541,712,985,818,1016,2897,2995,2989,3181,2898,2995,2988,3181,1,1,1,1,239456,0,-168,0,54,46,0,5,38,0,0,1,0,1,0,3,0,0,2,0,0,0,0,0,0,0,0,0,0,-217,0,0,0,0,0,3,0,0,0,0,0,0,0,1052.227,89.53698,0,0,0,0,0,0,0,0,0,0,0,0,239456,-2471,0,-3916,0,1440,1480,1520,1440,0,0,46,0,0,0,155,0,437,989,17654,0,0,16,0,0,0,0,0,105,0,2743,2743,1,0,0,0,0,0,230,-16,1,0,0,0,1346,3000,0,-935,3000,0,-50,3000,0,0,0,0,0,231,0,0,2,0,0,0,0,0,0,0,0
240033,25,1,19,7072,247,245,35,0,10,0,1,0,0,0,1,0,0,0,0,11,2048,0,0,4,412,0,211,6,1,1,13,1921,1137963011,229317757,27818,240032,-0.9537961,3.722516,-23,0,0,0,0,0,0,0,4,2,0,0,1472,1479,1422,1424,1000,0,231,0,5836,6574,5688,6436,-7,21,-236,-230,-247,-8,-15,-994,25,2,28,231,-11.61569,-76,29,-3,0,45,0,16.52438,0.1736864,114,31,1137962937,229318286,-2.132,0,0,6,23,296258600,2294,1,3,0,7,36,16.25744,0.1638562,-2289,128,32,1467,0,0,0,0,0,0,0,240000,229318272,1137962972,29954,229318251,1137962918,29955,0,0,0,0,229318292,1137962971,29942,0,0,0,0,227,10,0,23,23,6,6,6,6,122,32,-5,36,37,-301,-243,-293,-62,88,-133,206,16.25744,0.1638562,16.34697,0.1895019,122,32,119,32,6,3,1,1,-3407,-3,0,3,20,0,0,0,0,-32,185,-2361,108,27,2,16.39368,0.1990018,-11.61387,0,0,100,100,7,99,-90,-471,-443,-441,-7,-11.63109,29954,-2,-2,0,1,0,32722,32812,32815,32730,32760,33788,32757,32750,33794,32757,32739,33760,32781,32818,32772,32786,32828,32783,100,100,100,100,39,42,42,43,1,2,2,0,0,1,29,36,10,70,9,0,0,0,0,24,-112,-10,-11,-9,13364,0,0,1754,0,131,549494129,1,16,2,0,0,0,0,0,0,0,0,0,0,0,0,0,0,0,0,0,0,0,0,0,0,0,0,0,0,0,0,0,0,0,0,0,0,0,0,1,0,0,0,19,0,0,17,0,0,1,0,0,49,4,0,0,0,0,0,0,175,0,0,0,0,0,0,0,0,0,0,0,0,0,0,0,0,0,0,0,0,0,0,0,0,2,0,0,0,0,0,0,0,2,1,48,0,0,2,274,0,0,0,0,0,0,0,0,1000,0,0,0,1000,0,0,1,1,0,2057,6380,6544,5570,5900,4529,4525,4539,4541,680,957,729,1093,2907,2981,3017,3149,2907,2981,3019,3147,1,1,1,1,239956,0,-168,0,54,45,0,1,-11,0,0,1,0,1,0,3,0,0,2,0,0,0,0,0,0,0,0,0,0,-217,0,0,0,0,0,3,0,0,0,0,0,0,0,1052.227,89.53698,0,0,0,0,0,0,0,0,0,0,0,0,239956,-1966,0,-3411,0,1440,1480,1520,1440,0,0,45,0,0,0,121,0,452,986,18321,0,0,16,0,0,0,0,0,76,0,2751,2753,1,0,0,0,0,0,233,-19,1,0,0,0,252,3000,0,-932,3000,0,-9,3000,0,0,0,0,0,234,0,0,2,0,0,0,0,0,0,0,0
240533,25,1,20,7572,247,244,36,0,10,0,1,0,0,0,1,0,0,0,0,2,2048,0,0,4,413,0,211,6,1,1,13,1250,1137963011,229317757,27818,240532,-14.72274,3.769117,-23,0,0,0,0,0,0,0,4,2,0,0,1411,1530,1470,1367,1000,0,229,0,6716,5914,4970,7298,-92,21,-237,-232,-252,-6,-10,-1009,-77,1,-6,229,-11.63972,-76,-4,16,-2,40,0,17.00525,0.3164434,89,27,1137962954,229318340,-2.19,0,0,6,23,296259200,2294,1,3,0,7,39,16.85792,0.3379534,-2289,85,25,1467,0,0,0,0,0,0,0,240499,229318310,1137962984,29970,229318289,1137962930,29955,0,0,0,0,229318336,1137962986,29957,0,0,0,0,227,10,0,23,23,6,6,6,6,94,29,0,36,38,-297,-245,-280,-55,224,-79,214,16.68,0.2867483,16.8487,0.3359122,94,29,94,28,6,3,1,1,-3511,0,0,3,20,0,0,0,0,-605,188,-2372,80,20,-2,16.87063,0.3322329,-11.63747,0,0,100,100,7,99,-73,-474,-445,-444,-6,-11.64385,29970,-2,-2,0,1,0,32729,32785,32887,32784,32755,33778,32818,32744,33775,32799,32741,33756,32776,32979,32775,32776,32990,32783,100,100,100,100,39,42,42,43,1,2,1,0,0,1,29,36,10,70,9,0,0,0,0,24,-92,-8,-9,-8,15420,0,0,1754,0,131,549494129,1,16,2,0,0,0,0,0,0,0,0,0,0,0,0,0,0,0,0,0,0,0,0,0,0,0,0,0,0,0,0,0,0,0,0,0,0,0,0,1,0,0,0,19,0,0,17,0,0,1,0,0,49,2,0,0,0,0,0,0,184,0,0,0,0,0,0,0,0,0,0,0,0,0,0,0,0,0,0,0,0,0,0,0,0,2,0,0,0,0,0,0,0,2,1,48,0,3,1,278,-360,-48,0,0,0,0,0,0,1000,0,0,0,1000,8,0,1,1,0,2057,6668,6518,5612,6084,4530,4525,4539,4541,1124,693,362,1462,2918,3005,3003,3114,2918,3003,3003,3112,1,1,1,1,240457,-128,-568,0,0,44,0,-1,-7,0,0,1,0,1,0,3,0,0,2,0,0,0,0,0,0,0,0,0,0,-217,0,0,0,0,0,3,0,0,0,0,0,0,0,1052.227,89.53698,0,0,0,0,0,0,0,0,0,0,0,0,240457,-2010,0,-3425,0,1440,1480,1520,1440,0,0,44,0,0,0,97,0,461,986,18664,0,0,16,0,0,0,0,0,63,0,2753,2753,1,0,0,0,0,0,230,-15,1,0,0,0,1394,3000,0,-968,3000,0,-54,3000,0,0,0,0,0,231,0,0,2,0,0,0,0,0,0,0,0
241033,25,1,21,8072,247,245,36,0,10,0,1,0,0,0,1,0,0,0,0,14,2048,0,0,4,413,0,211,6,1,1,13,1578,1137963011,229317757,27818,241033,5.288078,2.861776,-23,0,0,0,0,0,0,0,4,2,0,0,1482,1444,1400,1422,1000,0,236,0,5296,6684,6042,5922,-52,16,-239,-231,-267,-3,-20,-1021,-9,-8,-9,236,-11.68807,-75,9,22,0,48,0,17.23922,0.1746831,28,-60,1137962948,229318359,-2.317,0,0,6,22,296259600,2294,1,3,0,7,39,17.08032,0.2765073,-2266,58,-2,1467,0,0,0,0,0,0,0,240999,229318346,1137962983,30075,229318326,1137962931,29953,0,0,0,0,229318359,1137962975,29958,0,0,0,0,227,10,0,22,22,6,6,6,6,32,-57,31,39,38,-259,-248,-250,-882,248,-1059,217,17.08032,0.2765073,17.1328,0.2700972,30,-58,39,-43,6,3,1,1,-3603,22,-8,3,20,0,0,0,0,-754,140,-2389,16,-77,0,17.11381,0.1960209,-11.68594,0,0,100,100,7,99,-124,-466,-449,-447,7,-11.68778,30075,-2,-2,0,1,0,32801,32799,32916,32719,32771,33771,32748,32758,33760,32743,32779,33764,32752,32458,32774,32748,32488,32784,100,100,100,100,39,43,42,43,1,1,1,0,0,1,29,70,17,77,12,0,0,0,0,24,-1301,-21,-23,-21,14392,0,0,1754,0,131,549494129,1,16,2,0,0,0,0,0,0,0,0,0,0,0,0,0,0,0,0,0,0,0,0,0,0,0,0,0,0,0,0,0,0,0,0,0,0,0,0,1,0,0,0,19,0,0,17,0,0,1,0,0,49,4,0,0,0,0,0,0,194,0,0,0,0,0,0,0,0,0,0,0,0,0,0,0,0,0,0,0,0,0,0,0,0,2,0,0,0,0,0,0,0,2,1,48,0,0,2,278,0,0,0,0,0,0,0,0,1000,0,0,0,1000,0,0,1,1,0,2057,6584,6640,5880,5904,4530,4524,4539,4541,585,907,737,772,2908,2998,2986,3128,2909,2998,2986,3128,1,1,1,1,240956,-48,-360,0,0,42,0,-8,-4,0,0,1,0,1,0,3,0,0,2,0,0,0,0,0,0,0,0,0,0,-217,0,0,0,0,0,3,0,0,0,0,0,0,0,1052.227,89.53698,0,0,0,0,0,0,0,0,0,0,0,0,240956,-2189,0,-3652,0,1440,1480,1520,1440,0,0,42,0,0,0,59,0,496,985,20119,0,0,16,0,0,0,0,0,-27,0,2746,2746,1,0,0,0,0,0,239,-6,1,0,0,0,4596,3000,0,-744,3000,0,-138,3000,0,0,0,0,0,244,0,0,2,0,0,0,0,0,0,0,0
241533,25,1,22,8572,247,244,34,0,10,0,1,0,0,0,1,0,0,0,0,4,2048,0,0,4,413,0,211,6,1,1,13,1179,1137963011,229317757,27818,241532,1.073802,2.893743,-23,0,0,0,0,0,0,0,4,2,0,0,1488,1490,1436,1438,1000,0,234,0,5854,6496,5756,6568,19,14,-241,-235,-262,-1,17,-1016,177,-3,-5,234,-11.65997,-76,-9,-36,7,43,0,17.31474,-0.1368695,21,-38,1137962911,229318368,-2.165,0,0,6,23,296260200,2294,1,3,0,7,39,17.20264,-0.07168709,-2386,19,-25,1467,0,0,0,0,0,0,0,241500,229318354,1137962956,29966,229318332,1137962904,30045,0,0,0,0,229318366,1137962943,30009,0,0,0,0,227,10,0,23,23,6,6,6,6,14,-68,31,38,37,-258,-250,-258,-306,130,-251,167,17.16928,0,17.20751,-0.07020481,14,-68,21,-44,6,3,1,1,-3325,36,8,3,20,0,0,0,0,269,122,-2412,18,-39,0,17.20155,-0.1084638,-11.66176,0,0,100,100,7,99,-21,-473,-448,-448,3,-11.67479,29966,-2,-2,0,1,0,32802,32805,32939,32759,32792,33793,32792,32779,33768,32762,32778,33763,32767,33066,32764,32763,33080,32772,100,100,100,100,39,42,43,43,1,1,1,0,0,1,29,70,17,77,12,0,0,0,0,24,853,-13,-13,-15,19275,0,0,1754,0,131,549494129,1,16,2,0,0,0,0,0,0,0,0,0,0,0,0,0,0,0,0,0,0,0,0,0,0,0,0,0,0,0,0,0,0,0,0,0,0,0,0,1,0,0,0,19,0,0,17,0,0,1,0,0,49,2,0,0,0,0,0,0,204,0,0,0,0,0,0,0,0,0,0,0,0,0,0,0,0,0,0,0,0,0,0,0,0,2,0,0,0,0,0,0,0,2,1,48,0,3,0,293,0,0,0,0,0,0,0,0,1000,0,0,0,1000,8,0,1,1,0,2057,6680,6470,5740,5970,4529,4524,4538,4541,735,932,731,881,2930,3034,2988,3168,2930,3034,2988,3168,1,1,1,1,241457,0,0,0,0,45,0,6,4,0,0,1,0,1,0,3,0,0,2,0,0,0,0,0,0,0,0,0,0,-217,0,0,0,0,0,3,0,0,0,0,0,0,0,1052.227,89.53698,0,0,0,0,0,0,0,0,0,0,0,0,241457,-1882,0,-3322,0,1440,1480,1520,1440,0,0,45,0,0,0,49,0,452,985,18321,0,0,16,0,0,0,0,0,-32,0,2740,2740,1,0,0,0,0,0,234,-22,1,0,0,0,-1278,3000,0,-655,3000,0,33,3000,0,0,0,0,0,235,0,0,2,0,0,0,0,0,0,0,0
242033,25,1,23,9072,246,244,36,0,10,0,1,0,0,0,1,0,0,0,0,8,2048,0,0,4,414,0,211,6,1,1,13,898,1137963011,229317757,27818,242032,1.657378,3.257843,-23,0,0,0,0,0,0,0,4,2,0,0,1486,1484,1423,1435,1000,0,234,0,5612,6312,5428,6334,15,16,-238,-239,-264,1,-1,-959,-11,2,2,234,-11.70491,-76,0,6,8,59,0,17.38581,-0.2673287,14,-21,1137962901,229318373,-2.2,0,0,6,22,296260600,2294,1,3,0,7,38,17.25824,-0.2048202,-2426,13,-28,1467,0,0,0,0,0,0,0,241999,229318362,1137962936,30029,229318340,1137962883,30065,0,0,0,0,229318373,1137962930,30044,0,0,0,0,227,10,0,22,23,6,6,6,6,13,-29,7,38,36,-239,-249,-243,112,112,194,149,17.25824,-0.2048202,17.28586,-0.2100051,13,-28,15,-23,6,3,1,1,-3772,6,3,3,20,0,0,0,0,196,140,-2388,12,-21,11,17.27999,-0.2336298,-11.70748,0,0,100,100,7,99,-122,-470,-452,-450,0,-11.7129,30029,-2,-2,0,1,0,32765,32736,32899,32757,32838,33728,32794,32842,33710,32775,32823,33709,32767,32741,32760,32768,32755,32769,100,100,100,100,39,43,42,43,1,1,1,0,0,1,29,70,17,77,12,0,0,0,0,24,-178,-26,-27,-28,16191,0,0,1754,0,131,549494129,1,16,2,0,0,0,0,0,0,0,0,0,0,0,0,0,0,0,0,0,0,0,0,0,0,0,0,0,0,0,0,0,0,0,0,0,0,0,0,1,0,0,0,19,0,0,17,0,0,1,0,0,49,2,0,0,0,0,0,0,213,0,0,0,0,0,0,0,0,0,0,0,0,0,0,0,0,0,0,0,0,0,0,0,0,2,0,0,0,0,0,0,0,2,1,48,0,3,0,305,0,0,0,0,0,0,0,0,1000,0,0,0,1000,8,0,1,1,0,2057,6134,6122,5304,5506,4529,4524,4538,4541,631,918,714,1035,2929,3035,3009,3187,2930,3037,3009,3187,1,1,1,1,241957,0,0,0,0,44,0,6,-3,0,0,1,1,1,0,3,0,0,2,0,0,0,0,0,0,0,0,0,0,-217,0,5,0,0,0,3,0,0,0,0,0,0,0,1735.676,-20.32704,0,0,0,0,0,0,0,0,0,0,0,0,241957,-2266,0,-3710,0,1440,1480,1520,1440,0,0,44,0,0,0,27,0,480,985,19537,0,0,16,0,0,0,0,0,-14,0,2746,2744,1,0,0,0,0,0,237,-17,1,0,0,0,-592,3000,0,-696,3000,0,16,3000,0,0,0,0,0,238,0,0,2,0,0,0,0,0,0,0,0
242534,25,1,24,9572,246,245,36,0,10,0,1,0,0,0,1,0,0,0,0,2,0,0,0,4,414,0,211,6,1,1,13,742,1137963011,229317757,27818,242534,1.019498,2.911421,-23,0,0,0,0,0,0,0,4,2,0,0,1468,1468,1412,1422,1000,0,229,0,5902,6510,5664,6512,14,19,-238,-237,-265,1,-1,-1029,0,7,-1,229,-11.6915,-76,0,-5,-1,46,0,17.41701,-0.3190803,5,-1,1137962893,229318377,-2.182,0,0,6,23,296261200,2294,1,3,0,7,38,17.31384,-0.2765073,-2328,3,1,1467,0,0,0,0,0,0,0,242499,229318366,1137962930,30007,229318344,1137962876,30039,0,0,0,0,229318376,1137962924,30030,0,0,0,0,227,10,0,23,23,6,6,6,6,6,-9,-4,37,36,-244,-249,-250,133,182,168,165,17.30272,-0.2662663,17.32257,-0.2790245,6,-8,7,-5,6,3,1,1,-3755,-4,-1,3,20,0,0,0,0,201,175,-2381,4,1,-2,17.32212,-0.2769168,-11.69024,0,0,100,100,7,99,-95,-468,-450,-449,0,-11.6959,30007,-2,-2,0,1,0,32762,32749,32901,32768,32774,33769,32806,32743,33760,32795,32741,33742,32778,32809,32769,32779,32817,32778,100,100,100,100,39,42,42,43,1,0,1,0,0,1,29,70,17,77,12,0,0,0,0,24,-334,-23,-24,-25,15163,0,0,1754,0,131,549494129,1,16,2,0,0,0,0,0,0,0,0,0,0,0,0,0,0,0,0,0,0,0,0,0,0,0,0,0,0,0,0,0,0,0,0,0,0,0,0,1,0,0,0,19,0,0,17,0,0,1,0,0,49,2,0,0,0,0,0,0,223,0,0,0,0,0,0,0,0,0,0,0,0,0,0,0,0,0,0,0,0,0,0,0,0,2,0,0,0,0,0,0,0,2,1,48,0,3,0,310,0,0,0,0,0,0,0,0,1000,0,0,0,1000,8,0,1,1,0,2057,6566,6540,5672,5928,4529,4524,4538,4541,774,1018,765,1028,2935,3040,3044,3171,2936,3038,3044,3173,1,1,1,1,242457,0,0,0,0,44,0,-1,-5,0,0,1,1,1,0,3,0,0,2,0,0,0,0,0,0,0,0,0,0,-217,0,13,0,0,0,3,0,0,0,0,0,0,0,1735.676,-20.32704,0,0,0,0,0,0,0,0,0,0,0,0,242457,-2363,0,-3808,0,1440,1480,1520,1440,0,0,44,0,0,0,9,0,434,984,17671,0,0,16,0,0,0,0,0,-1,0,2754,2754,1,0,0,0,0,0,230,-13,1,0,0,0,-739,3000,0,-862,3000,0,25,3000,0,0,0,0,0,231,0,0,2,0,0,0,0,0,0,0,0
243033,25,1,25,10072,247,244,36,0,10,0,1,0,0,0,1,0,0,0,0,1,0,0,0,4,415,0,211,6,1,1,13,710,1137963011,229317757,27818,243032,-13.52315,0.3554299,-23,0,0,0,0,0,0,0,4,2,0,0,1504,1457,1382,1442,1000,0,234,0,5658,6734,5730,6424,-46,-1,-237,-233,-268,4,-3,-995,-101,-39,-1,234,-11.69224,-76,-7,-1,0,48,0,17.40422,-0.2792149,-3,7,1137962896,229318376,-2.211,0,0,6,22,296261600,2294,1,3,0,7,38,17.31384,-0.2457843,-2328,0,9,1467,0,0,0,0,0,0,0,243000,229318367,1137962932,30022,229318346,1137962879,30032,0,0,0,0,229318375,1137962928,30005,0,0,0,0,227,10,0,22,23,6,6,6,6,-3,11,-14,37,36,-244,-249,-252,156,185,142,191,17.31384,-0.2457843,17.31639,-0.2442637,-2,11,-1,10,6,3,1,1,-3430,-1,1,3,20,0,0,0,0,-305,-9,-2375,-5,4,0,17.31084,-0.2376317,-11.69325,0,0,100,100,7,99,-99,-475,-449,-450,6,-11.68804,30022,-2,-2,0,1,0,32763,32769,32891,32788,32768,33802,32821,32754,33799,32808,32751,33783,32714,33023,32770,32718,33012,32783,100,100,100,100,39,43,43,43,1,0,0,0,0,1,29,39,7,38,6,0,0,0,0,24,114,2,2,2,13107,0,0,1754,0,131,549494129,1,16,2,0,0,0,0,0,0,0,0,0,0,0,0,0,0,0,0,0,0,0,0,0,0,0,0,0,0,0,0,0,0,0,0,0,0,0,0,1,0,0,0,19,0,0,17,0,0,1,0,0,49,2,0,0,0,0,0,0,233,0,0,0,0,0,0,0,0,0,0,0,0,0,0,0,0,0,0,0,0,0,0,0,0,2,0,0,0,0,0,0,0,2,1,48,0,3,1,315,-304,0,0,0,0,0,0,0,1000,0,0,0,1000,8,0,1,1,0,2057,6468,6530,5656,5870,4529,4524,4538,4540,507,1200,766,1024,2928,3037,3045,3195,2928,3035,3044,3195,1,1,1,1,242956,0,-288,0,0,44,0,1,-6,0,0,1,0,1,0,3,0,0,2,0,0,0,0,0,0,0,0,0,0,-217,0,0,0,0,0,3,0,0,0,0,0,0,0,1735.676,-20.32704,0,0,0,0,0,0,0,0,0,0,0,0,242956,-2026,0,-3470,0,1440,1480,1520,1440,0,0,44,0,0,0,9,0,463,984,18750,0,0,16,0,0,0,0,0,7,0,2767,2768,1,0,0,0,0,0,234,-14,1,0,0,0,1237,3000,0,-117,3000,0,-5,3000,0,0,0,0,0,235,0,0,2,0,0,0,0,0,0,0,0
243533,25,1,26,10572,246,245,36,0,10,0,1,0,0,0,1,0,0,0,0,16,2048,0,0,4,416,0,211,6,1,1,13,1203,1137963011,229317757,27818,243532,-10.63117,1.00027,-23,0,0,0,0,0,0,0,4,2,0,0,1465,1463,1424,1416,1000,0,235,0,5938,6668,5938,6716,-112,-3,-239,-237,-284,5,-3,-1016,-159,-6,-7,235,-11.69164,-76,7,30,-2,49,0,17.30048,-0.4518733,-32,-69,1137962880,229318366,-2.319,0,0,6,23,296262200,2294,1,3,0,7,36,17.21376,-0.3993995,-2367,-38,-79,1467,0,0,0,0,0,0,0,243499,229318363,1137962929,30114,229318342,1137962877,29974,0,0,0,0,229318366,1137962914,29950,0,0,0,0,227,10,0,23,23,6,6,6,6,-16,-20,-16,36,36,-251,-251,-261,-521,43,-674,-19,17.26936,-0.2662663,17.23746,-0.3522798,-16,-20,-25,-50,6,3,1,1,-3492,-19,0,3,20,0,0,0,0,-1097,-63,-2394,-39,-85,0,17.20766,-0.4124105,-11.68927,0,0,100,100,7,99,-127,-467,-452,-450,-10,-11.71383,30114,-2,-2,0,1,0,32791,32787,32931,32751,32796,33851,32791,32784,33841,32776,32786,33841,32784,32562,32781,32784,32574,32785,100,100,100,100,39,43,43,43,1,0,0,0,0,1,29,39,7,38,6,0,0,0,0,24,-623,4,3,4,16191,0,0,1754,0,131,549494129,1,16,2,0,0,0,0,0,0,0,0,0,0,0,0,0,0,0,0,0,0,0,0,0,0,0,0,0,0,0,0,0,0,0,0,0,0,0,0,1,0,0,0,19,0,0,17,0,0,1,0,0,49,2,0,0,0,0,0,0,242,0,0,0,0,0,0,0,0,0,0,0,0,0,0,0,0,0,0,0,0,0,0,0,0,2,0,0,0,0,0,0,0,2,1,48,0,3,1,329,-544,0,0,0,0,0,0,0,1000,0,0,0,1000,8,0,1,1,0,2057,6626,6750,5872,5802,4530,4524,4537,4541,841,948,860,973,2954,3059,3041,3191,2954,3059,3040,3189,1,1,1,1,243457,0,-544,0,0,45,0,0,-3,0,0,1,0,1,0,3,0,0,2,0,0,0,0,0,0,0,0,0,0,-217,0,0,0,0,0,3,0,0,0,0,0,0,0,1735.676,-20.32704,0,0,0,0,0,0,0,0,0,0,0,0,243457,-2036,0,-3471,0,1440,1480,1520,1440,0,0,45,0,0,0,60,0,475,983,19315,0,0,16,0,0,0,0,0,-60,0,2782,2781,1,0,0,0,0,0,230,6,1,0,0,0,5175,3000,0,225,3000,0,47,3000,0,0,0,0,0,236,0,0,2,0,0,0,0,0,0,0,0
244033,25,1,27,11072,246,244,36,0,10,0,1,0,0,0,1,0,0,0,0,4,2048,0,0,4,416,0,211,6,1,1,13,1218,1137963011,229317757,27818,244033,6.958842,1.137576,-23,0,0,0,0,0,0,0,4,2,0,0,1517,1419,1392,1449,1000,0,244,0,4994,6994,6430,5990,-13,0,-245,-241,-291,5,13,-1022,98,10,-11,244,-11.66425,-78,-36,1,0,46,0,17.0271,-1.079082,-62,-141,1137962834,229318348,-2.3,0,0,6,23,296262600,2294,1,3,0,7,36,17.0136,-0.850004,-2367,-66,-136,1467,0,0,0,0,0,0,0,243999,229318340,1137962873,30066,229318319,1137962821,29978,0,0,0,0,229318343,1137962855,29943,0,0,0,0,227,10,0,23,23,6,6,6,6,-66,-136,4,36,36,-253,-258,-268,-1137,13,-1116,-27,17.0136,-0.850004,16.98697,-0.9232197,-66,-135,-56,-127,6,3,1,1,-3445,1,2,3,20,0,0,0,0,-405,-17,-2453,-68,-158,-3,16.93612,-1.038828,-11.66228,0,0,100,100,7,99,-79,-487,-449,-448,-4,-11.68671,30066,-1,-2,0,1,0,32695,32756,32958,32752,32816,33790,32781,32809,33784,32778,32810,33764,32770,32538,32779,32768,32522,32791,100,100,100,100,39,43,43,44,0,1,1,0,0,1,29,39,7,38,6,0,0,0,0,24,-228,6,6,4,14135,0,0,1754,0,131,549494129,1,16,2,0,0,0,0,0,0,0,0,0,0,0,0,0,0,0,0,0,0,0,0,0,0,0,0,0,0,0,0,0,0,0,0,0,0,0,0,1,0,0,0,19,0,0,17,0,0,1,0,0,49,2,0,0,0,0,0,0,252,0,0,0,0,0,0,0,0,0,0,0,0,0,0,0,0,0,0,0,0,0,0,0,0,2,0,0,0,0,0,0,0,2,1,48,0,3,0,344,0,0,0,0,0,0,0,0,1000,0,0,0,1000,8,0,1,1,0,2057,6730,6660,6078,5760,4529,4523,4537,4539,342,1048,858,757,2986,3055,3058,3201,2986,3055,3058,3202,1,1,1,1,243956,0,0,0,0,45,0,1,14,0,0,1,0,1,0,3,0,0,2,0,0,0,0,0,0,0,0,0,0,-217,0,0,0,0,0,3,0,0,0,0,0,0,0,1735.676,-20.32704,0,0,0,0,0,0,0,0,0,0,0,0,243956,-1948,0,-3375,0,1440,1480,1520,1440,0,0,45,0,0,0,142,0,478,983,19452,0,0,16,0,0,0,0,0,-142,0,2775,2776,1,0,0,0,0,0,237,-7,1,0,0,0,3466,3000,0,3,3000,0,0,3000,0,0,0,0,0,240,0,0,2,0,0,0,0,0,0,0,0
244533,25,1,28,11572,246,243,36,0,10,0,1,0,0,0,1,0,0,0,0,21,2048,0,0,4,417,0,211,6,1,1,13,1554,1137963011,229317757,27818,244532,2.236578,1.003552,-23,0,0,0,0,0,0,0,4,2,0,0,1493,1487,1444,1431,1000,0,234,0,6056,6572,6014,6908,31,1,-246,-247,-290,3,44,-1006,118,1,-2,234,-11.64471,-79,-26,-18,4,44,0,16.74271,-1.728443,-45,-100,1137962756,229318316,-2.153,0,0,6,23,296263200,2294,1,3,0,7,37,16.66888,-1.648803,-2565,-44,-82,1467,0,0,0,0,0,0,0,244500,229318318,1137962816,29959,229318295,1137962765,30063,0,0,0,0,229318316,1137962790,29994,0,0,0,0,227,10,0,22,23,6,6,6,6,-56,-139,10,36,37,-253,-259,-270,-179,-103,63,13,16.76896,-1.433742,16.68428,-1.613163,-55,-139,-49,-110,6,3,1,1,-3537,18,12,3,20,0,0,0,0,398,-1,-2466,-41,-99,0,16.66217,-1.683377,-11.64558,0,0,100,100,7,99,-28,-498,-447,-447,6,-11.67078,29959,-1,-2,0,1,0,32762,32772,32903,32772,32792,33873,32808,32780,33896,32824,32774,33854,32728,33041,32756,32735,33008,32768,100,100,100,100,39,42,43,44,0,2,1,0,0,1,29,39,7,38,6,0,0,0,0,24,222,16,16,13,16191,0,0,1754,0,131,549494129,1,16,2,0,0,0,0,0,0,0,0,0,0,0,0,0,0,0,0,0,0,0,0,0,0,0,0,0,0,0,0,0,0,0,0,0,0,0,0,1,0,0,0,19,0,0,17,0,0,1,0,0,49,2,0,0,0,0,0,0,5,0,0,0,0,0,0,0,0,0,0,0,0,0,0,0,0,0,0,0,0,0,0,0,0,2,0,0,0,0,0,0,0,2,1,48,0,3,0,348,0,0,0,0,0,0,0,0,1000,0,0,0,1000,8,0,1,1,0,2057,6798,6378,5906,6030,4529,4523,4538,4540,884,1025,827,1166,2992,3077,3035,3236,2992,3077,3034,3237,1,1,1,1,244456,0,0,0,0,47,0,9,20,0,0,1,0,1,0,3,0,0,2,0,0,0,0,0,0,0,0,0,0,-217,0,0,0,0,0,3,0,0,0,0,0,0,0,1735.676,-20.32704,0,0,0,0,0,0,0,0,0,0,0,0,244456,-2093,0,-3540,0,1440,1480,1520,1440,0,0,47,0,0,0,119,0,455,983,18527,0,0,16,0,0,0,0,0,-119,0,2765,2767,1,0,0,0,0,0,235,-25,1,0,0,0,-1808,3000,0,-54,3000,0,3,3000,0,0,0,0,0,236,0,0,2,0,0,0,0,0,0,0,0
245033,25,1,29,12072,246,244,36,0,10,0,1,0,0,0,1,0,0,0,0,10,2048,0,0,4,417,0,211,6,1,1,13,1382,1137963011,229317757,27818,245032,2.106565,0.8301321,-23,0,0,0,0,0,0,0,4,2,0,0,1488,1476,1429,1428,1000,0,234,0,5756,6364,5674,6430,22,2,-243,-241,-289,4,18,-973,-20,3,5,234,-11.68828,-78,9,1,4,55,0,16.54697,-2.138973,-33,-71,1137962722,229318302,-2.178,0,0,6,22,296263600,2294,1,3,0,7,36,16.49096,-1.986756,-2289,-37,-82,1467,0,0,0,0,0,0,0,244999,229318293,1137962762,30009,229318272,1137962708,30058,0,0,0,0,229318299,1137962749,30027,0,0,0,0,227,10,0,22,23,6,6,6,6,-38,-83,2,36,36,-239,-255,-259,197,0,314,14,16.49096,-1.986756,16.48278,-2.044845,-37,-82,-35,-76,6,3,1,1,-3691,1,1,3,20,0,0,0,0,270,19,-2434,-32,-68,4,16.46304,-2.085162,-11.68954,0,0,100,100,7,99,-108,-489,-450,-449,0,-11.69507,30009,-1,-2,0,1,0,32741,32783,32918,32793,32853,33777,32827,32856,33759,32827,32847,33731,32770,32765,32754,32763,32770,32769,100,100,100,100,39,43,43,44,0,1,1,0,0,1,29,31,5,75,4,0,0,0,0,24,-268,1,0,0,19275,0,0,1754,0,131,549494129,1,16,2,0,0,0,0,0,0,0,0,0,0,0,0,0,0,0,0,0,0,0,0,0,0,0,0,0,0,0,0,0,0,0,0,0,0,0,0,1,0,0,0,19,0,0,17,0,0,1,0,0,49,2,0,0,0,0,0,0,15,0,0,0,0,0,0,0,0,0,0,0,0,0,0,0,0,0,0,0,0,0,0,0,0,2,0,0,0,0,0,0,0,2,1,48,0,3,0,351,0,0,0,0,0,0,0,0,1000,0,0,0,1000,8,0,1,1,0,2057,6326,6182,5564,5632,4529,4523,4538,4540,757,883,728,1060,2991,3089,3042,3212,2992,3089,3044,3212,1,1,1,1,244957,0,0,0,0,45,0,3,11,0,0,1,0,1,0,3,0,0,2,0,0,0,0,0,0,0,0,0,0,-217,0,0,0,0,0,3,0,0,0,0,0,0,0,1735.676,-20.32704,0,0,0,0,0,0,0,0,0,0,0,0,244957,-2247,0,-3692,0,1440,1480,1520,1440,0,0,45,0,0,0,82,0,453,980,18424,0,0,16,0,0,0,0,0,-82,0,2764,2764,1,0,0,0,0,0,238,-20,1,0,0,0,-972,3000,0,-135,3000,0,5,3000,0,0,0,0,0,239,0,0,2,0,0,0,0,0,0,0,0
245534,25,1,30,12572,246,244,36,0,10,0,1,0,0,0,1,0,0,0,0,2,2048,0,0,4,417,0,211,6,1,1,13,1054,1137963011,229317757,27818,245534,1.753284,0.8246685,-23,0,0,0,0,0,0,0,4,2,0,0,1479,1468,1426,1422,1000,0,237,0,5768,6452,5766,6620,19,0,-244,-242,-290,3,12,-1018,-3,-6,-1,237,-11.681,-77,21,0,0,46,0,16.39804,-2.413233,-23,-48,1137962689,229318285,-2.177,0,0,6,23,296264200,2294,1,3,0,7,36,16.32416,-2.334951,-2386,-21,-43,1467,0,0,0,0,0,0,0,245499,229318282,1137962737,29995,229318260,1137962684,30031,0,0,0,0,229318285,1137962721,30016,0,0,0,0,227,10,0,23,23,6,6,6,6,-25,-54,5,36,37,-234,-256,-259,246,2,225,21,16.36864,-2.242782,16.32406,-2.337316,-24,-53,-25,-52,6,3,1,1,-3571,4,0,3,20,0,0,0,0,253,-6,-2440,-22,-41,-3,16.31655,-2.347711,-11.68116,0,0,100,100,7,99,-74,-477,-448,-449,5,-11.6802,29995,-1,-2,0,1,0,32776,32772,32925,32747,32791,33760,32776,32791,33758,32760,32794,33745,32751,32790,32766,32748,32822,32778,100,100,100,100,39,43,43,44,0,1,1,0,0,1,29,31,5,75,4,0,0,0,0,24,-7,3,2,2,15163,0,0,1754,0,131,549494129,1,16,2,0,0,0,0,0,0,0,0,0,0,0,0,0,0,0,0,0,0,0,0,0,0,0,0,0,0,0,0,0,0,0,0,0,0,0,0,1,0,0,0,19,0,0,17,0,0,1,0,0,49,2,0,0,0,0,0,0,25,0,0,0,0,0,0,0,0,0,0,0,0,0,0,0,0,0,0,0,0,0,0,0,0,2,0,0,0,0,0,0,0,2,1,48,0,3,0,352,0,0,0,0,0,0,0,0,1000,0,0,0,1000,8,0,1,1,0,2057,6602,6454,5802,5814,4529,4523,4538,4540,771,910,809,941,3003,3097,3080,3201,3003,3097,3079,3201,1,1,1,1,245456,0,0,0,0,44,0,0,12,0,0,1,0,1,0,3,0,0,2,0,0,0,0,0,0,0,0,0,0,-217,0,0,0,0,0,3,0,0,0,0,0,0,0,1735.676,-20.32704,0,0,0,0,0,0,0,0,0,0,0,0,245456,-2128,0,-3573,0,1440,1480,1520,1440,0,0,44,0,0,0,58,0,482,979,19623,0,0,16,0,0,0,0,0,-58,0,2767,2768,1,0,0,0,0,0,237,-20,1,0,0,0,-915,3000,0,29,3000,0,-1,3000,0,0,0,0,0,238,0,0,2,0,0,0,0,0,0,0,0
246033,25,1,31,13072,246,244,36,0,10,0,1,0,0,0,1,0,0,0,0,6,2048,0,0,4,418,0,211,6,1,1,13,851,1137963011,229317757,27818,246032,1.346356,1.144895,-23,0,0,0,0,0,0,0,4,2,0,0,1445,1502,1390,1464,1000,0,236,0,5858,6080,6006,6610,14,3,-322,-280,-338,4,11,-996,-11,0,-149,236,-11.69255,-77,1,9,2,49,0,16.32898,-2.583852,-13,-30,1137962675,229318280,-2.181,0,0,6,23,296264600,2294,1,3,0,7,36,16.27968,-2.478325,-2756,-10,-23,1467,0,0,0,0,0,0,0,246000,229318275,1137962714,30010,229318250,1137962662,30056,0,0,0,0,229318281,1137962704,30026,0,0,0,0,227,10,0,23,23,6,6,6,6,6,-24,9,36,37,-302,-328,-329,266,-2,198,0,16.27968,-2.478325,16.24952,-2.513393,-9,-23,-12,-29,6,3,1,1,-3446,9,-1,3,20,0,0,0,0,195,25,-3154,-9,-21,-2,16.25267,-2.507982,-11.69301,0,0,100,100,7,99,-76,-471,-450,-449,-2,-11.69378,30010,-1,-2,0,1,0,32805,32779,32921,32678,32784,33722,32719,32772,33705,32691,32773,33697,32789,32836,33212,32765,32867,33218,100,100,100,100,39,43,43,44,0,0,1,0,0,1,29,31,5,75,4,0,0,0,0,24,-211,4,3,4,13107,0,0,1754,0,131,549494129,1,16,2,0,0,0,0,0,0,0,0,0,0,0,0,0,0,0,0,0,0,0,0,0,0,0,0,0,0,0,0,0,0,0,0,0,0,0,0,1,0,0,0,19,0,0,17,0,0,1,0,0,49,2,0,0,0,0,0,0,34,0,0,0,0,0,0,0,0,0,0,0,0,0,0,0,0,0,0,0,0,0,0,0,0,2,0,0,0,0,0,0,0,2,1,48,0,3,1,355,0,0,0,-46,0,0,0,0,1000,0,0,0,1000,8,0,1,1,0,2057,5992,7138,5038,6480,4529,4523,4537,4540,729,948,804,918,3017,3097,3097,3224,3019,3097,3096,3224,1,1,1,1,245956,0,0,0,-28,44,0,0,-184,0,0,1,0,1,0,3,0,0,2,0,0,0,0,0,0,0,0,0,0,-217,0,0,0,0,0,3,0,0,0,0,0,0,0,1735.676,-20.32704,0,0,0,0,0,0,0,0,0,0,0,0,245956,-1999,0,-3444,0,1440,1480,1520,1440,0,0,44,0,0,0,36,0,495,979,20136,0,0,16,0,0,0,0,0,-36,0,2768,2769,1,0,0,0,0,0,238,-20,1,0,0,0,-658,3000,0,-107,3000,0,2,3000,0,0,0,0,0,239,0,0,2,0,0,0,0,0,0,0,0
