FcTime,PowerOnCount,FlightCount,SequenceNumber,FlightTime,BatteryVoltage,AdcVoltage,CoreTemp,SelfCheckStatus,ledState,FaultFlag,ErrHandling,SoftwareVersion,ConfigCount,SimState,ProductType,ModelOnliebit1,ModelOnliebit2,FrameLoss1,FrameLoss2,RTKBit,MSDFBit,PlatBit,FCBit,SensorState,ImuTemp,ImuState,ImuUse,UseGPSState,TempState,SafeState,HeadErrFlag,AccelZAmp,HomeLongitude,HomeLatitude,HomeAltitude,SystemTime,RollControl,PitchControl,YawControl,HeightVelocityContorl,NorthVelocityHandle,EastVelocityHandle,Aileron,Elevator,Throttle,Rudder,Mode,AutoMode,RCState,Reserve2,OutputM1,OutputM2,OutputM3,OutputM4,OutputM5,OutputM6,OutputM7,OutputM8,MortorSpeed1,MortorSpeed2,MortorSpeed3,MortorSpeed4,RollAngle,PitchAngle,YawAngle,HeadingAngle,EstimateHeading,AccelX,AccelY,AccelZ,GyroRoll,GyroPitch,GyroYaw,GroundHeight,VerticalHeight,BaroHeight,BaroVelocity,GPSVelocity,VerticalVelocity,AHRSVelocity,Reserve3,NorthPosition,EastPosition,NorthVelocity,EastVelocity,CurrentLongitude,CurrentLatitude,CurrentHeight,Lon89,Lat89,GPSFix,GPSNumSV,GPSITOW,GPSWeek,GPSDiffAge,RtkDevice,PositionAccuracy,GPSHeadAccuracy,HorVelocityAccuracy,GPSNorthPos,GPSEastPos,GPSPosHead,GPSNorthVelocity,GPSEastVelocity,stationId,MainRev1,MainRev2,msg_id,sub_cmd_id,retval,from_id,rev_timestamp_ms,SystemTimeMsdf,GpsRight1,GpsRight2,GpsRightAltitude,GpsLeft1,GpsLeft2,GpsLeftAltitude,Lon_R89,Lat_R89,Lon_L89,Lat_L89,FusionGpsLoacation1,FusionGpsLoacation2,FusionGpsLoacation3,LngErr,LatErr,AltErr,GpsVelErrFlag,GpsPosErrType,GpsAltErrType,GpsUseIndex,GpsNsv1,GpsNsv2,Fixmode1,Fixmode2,GpsHeadFixmode1,GpsHeadFixmode2,UseGpsVel1,UseGpsVel2,UseGpsVel3,GpsVelAccuracy1,GpsVelAccuracy2,AccEstHead,GyroEstHead,InsEstHead,AccEuler1,AccEuler2,DelayEuler1,DelayEuler2,GpsPos1,GpsPos2,FusionPos1,FusionPos2,GpsVel1,GpsVel2,DelayVel1,DelayVel2,UseGpsState,HorizFusionSource,HorizKalmanNum,GpsValidState,Rev2,Rev3,Rev4,FlowState,FlowHealthyFactor,FlowVel1,FlowVel2,DelayVelFlow1,DelayVelFlow2,EkfEuler1,EkfEuler2,EkfEuler3,EkfVel1,EkfVel2,EkfVel3,EkfPos1,EkfPos2,EkfPos3,WindVelNE1,WindVelNE2,KaccXY1,KaccXY2,VerticalFusionSource,BaroCmpeK,AccOffsetZ,BaroCorrectHeight,GpsHeightForFusion,AhrsDelayHeightBaro,GpsPosDiffVelZ,InteVelNE1,InteVelNE2,VerticalVel_3imu1,VerticalVel_3imu2,UseVerticalVelIndex,UseNavSource,FlySafeState,Acc0_adc1,Acc0_adc2,Acc0_adc3,Acc1_adc1,Acc1_adc2,Acc1_adc3,Acc2_adc1,Acc2_adc2,Acc2_adc3,Acc3_adc1,Acc3_adc2,Acc3_adc3,Gyro0_adc1,Gyro0_adc2,Gyro0_adc3,Gyro3_adc1,Gyro3_adc2,Gyro3_adc3,Imustate1,Imustate2,Imustate3,Imustate4,ImuTemperature1,ImuTemperature2,ImuTemperature3,ImuTemperature4,S3EstVar,AccXamp,AccYamp,AccXamp2,AccYamp2,AccZamp2,BaroTemperature,FftFreq,FftAmp,FftFreq2,FftAmp2,PosFuisonQuality1,PosFuisonQuality2,PosFuisonQuality3,VelFusionQuality1,VelFusionQuality2,VelFusionQuality3,AccZErrInte1,AccZErrInte2,AccZErrInte3,Rev41,f_airX,f_airY,InsLogVersion,SensorInitState,BaroType,SystemTimeTPS,SystemSwitch,Rev1,TpsStatus,MotionStatus,ProjectID1,ProjectID2,ProjectID3,ProjectID4,ProjectID5,ProjectID6,ProjectID7,ProjectID8,ProjectID9,ProjectID10,ProjectID11,ProjectID12,ProjectID13,ProjectID14,ProjectID15,ProjectID16,MissionID1,MissionID2,MissionID3,MissionID4,MissionID5,MissionID6,MissionID7,MissionID8,MissionID9,MissionID10,MissionID11,MissionID12,MissionID13,MissionID14,MissionID15,MissionID16,MotionMode,ListType,Segment,Rev5,WpNum,WpLen,ListWpNum,ListWpRestNum,ListStartIndex,ListEndIndex,RouteStatus,NavStatus,WpIndex,WpStatus,Cmd,CmdStatus,Action,ActionStatus,RobotModeStatus,Error,NavWpIndex,NavCmd,NavWpStatus,NavMode,Rev71,Rev72,Rev73,NavError,Index,WpSegment,Type,Longitude,Latitude,Height,Speed,HeightBehavior,HeightSource,OaMode,RouteHeadType,RouteHeading,Reserved0,LoiterLongitude,LoiterLatitude,LoiterRadius,LoiterDirection,LoiterCircleCount,HoldTime,HoldBehavior,WpHeadType,WpHeading,TargetLongitude,TargetLatitude,TargetHeight,GoHomeCmd,Rev81,Rev82,Rev83,TpsRcHeightSource,TpsRcMode,TpsRcCmd,TpsRcCmdStatus,TpsRcSignalMode,TpsRcSignalStatus,Rev9,TpsRcSignal1,TpsRcSignal2,TpsRcSignal3,TpsRcSignal4,TpsRcSignal5,TpsRcSignal6,TpsRcSignal7,TpsRcSignal8,EventCode1,EventCode2,EventCode3,EventCode4,CurrEvCode,CurrEvcmdSn,CurrEvcmdSta,CurrEvEmergAct,ActiveEvCnt,Maybe_takeover,EvDataU16,Speed1,Speed2,Speed3,Speed4,OutputVolt1,OutputVolt2,OutputVolt3,OutputVolt4,OutputCurr1,OutputCurr2,OutputCurr3,OutputCurr4,CPUTemp1,CPUTemp2,CPUTemp3,CPUTemp4,MosBoardTemp1,MosBoardTemp2,MosBoardTemp3,MosBoardTemp4,XAStatus1,XAStatus2,XAStatus3,XAStatus4,SystemTimeControl,ControlX,ControlY,ControlZ,ControlR,ControlThrottle,VerticalVelocitySp,VerticalVelocity2,YawRateSp,AllStatusFlag,LandState,HeightLockFlag,PointLockFlag,TFFlag,LevelFlag,takeOffFlag,setPointLevelExtern,setPointHeightExtern,MotorState,wp_NorthSetPoint,wp_EastSetPoint,wp_NorthSetVel,wp_EastSetVel,wp_NorthSetAcc,wp_EastSetAcc,wp_VerticalSetPos,wp_VerticalSetVel,wp_VertivalSetAcc,RouteError,HeightSetPoint,TFOut,HoverError,NavUpdateCount,setSource,useSource,FlightUseHeightSource1,Rev101,Rev102,Rev103,XsenseDistance1,RollOut,PitchOut,YawOut,SetGPSPointLevelNorth1,SetGPSPointLevelEast1,Fbxxx1,Fbxxx2,Fbxxx3,Fbxxx4,Fbxxx5,Fbxxx6,Fbxxx7,Fbxxx8,Fbxxx9,Fbxxx10,Fbxxx11,Fbxxx12,SystemTimeFW,AirspeedRaw,AirSpeed,AirspeedRaw1,CaliAirspeed,Servo1,Servo2,Servo3,Servo4,Fw_RollControl,Fw_PitchControl,MCThrottle,FWThrottle,TransStatus,TransToFw,Gnd_ms,Rev11,Power,Soc,Current,AirspeedScale,AutoType,WpState,Beta,Rev12,WindNorthSpeed,WindEastSpeed,Speed5,OutputVolt5,OutputCurr5,CPUTemp5,MosBoardTemp5,XAStatus5,CircleMode,UseLQR,LateralAccel,BearingError,CrossTrackError,TerrainHeightEstimate,TerrainCorrection,TerrainValid,ATT_Error,FwModeFailedCount,VtolFlightMode,RollBodyRateSP,RollBodyRate,RollLastOut,PitchBodyRateSP,PitchBodyRate,PitchLastOut,YawBodyRateSP,YawBodyRate,YawLastOut,RollInt,PitchInt,YawInt,DemRelativeAltitude,DemRelativeAltSP,DemVerticalVelocitySP,AirRev1,AirRev2,Cnt,Monitor1,Monitor2,FaultBit,AngleX,AngleY,AngleZ,DebugTest
95976,363,1,0,0,0,0,0,0,0,0,0,0,0,0,0,0,0,0,0,0,0,0,0,0,0,0,0,0,0,0,0,0,0,0,0,0,0,0,0,0,0,0,0,0,0,0,0,0,0,0,0,0,0,0,0,0,0,0,0,0,0,0,0,0,0,0,0,0,0,0,0,0,0,0,0,0,0,0,0,0,0,0,0,0,0,0,0,0,0,0,0,0,0,0,0,0,0,0,0,0,0,0,0,0,0,0,0,67,1,0,5046272,24240,0,0,0,0,0,0,0,0,0,0,0,0,0,0,0,0,0,0,0,0,0,0,0,0,0,0,0,0,0,0,0,0,0,0,0,0,0,0,0,0,0,0,0,0,0,0,0,0,0,0,0,0,0,0,0,0,0,0,0,0,0,0,0,0,0,0,0,0,0,0,0,0,0,0,0,0,0,0,0,0,0,0,0,0,0,0,0,0,0,0,0,0,0,0,0,0,0,0,0,0,0,0,0,0,0,0,0,0,0,0,0,0,0,0,0,0,0,0,0,0,0,0,0,0,0,0,0,0,0,0,0,0,0,0,0,0,0,0,0,0,0,0,0,0,0,0,0,0,0,0,0,0,0,0,0,0,0,0,0,0,0,0,0,0,0,0,0,0,0,0,0,0,0,0,0,0,0,0,0,0,0,0,0,0,0,0,0,0,0,0,0,0,0,0,0,0,0,0,0,0,0,0,0,0,0,0,0,0,0,0,0,0,0,0,0,0,0,0,0,0,0,0,0,0,0,0,0,0,0,0,0,0,0,0,0,0,0,0,0,0,0,0,0,0,0,0,0,0,0,0,0,0,0,0,0,0,0,0,0,0,0,0,0,0,0,0,0,0,0,0,0,0,0,0,0,0,0,0,0,0,0,0,0,0,0,0,0,0,0,0,0,0,0,0,0,0,0,0,0,0,0,0,0,0,0,0,0,0,0,0,0,0,0,0,0,0,0,0,0,0,0,0,0,0,0,0,0,0,0,0,0,0,0,0,0,0,0,0,0,0,0,0,0,0,0,0,0,0,0,0,0,0,0,0,0,0,0,0,0,0,0,0,0,0,0,0,0,0,0,0,0,0,0,0,0,0,0,0,0,0,0,0,0,0,0,0,0,0,0,0,0,0,0,0,0,0,0,0,0,0,0,0,0,0,0,0,0,0,0
96041,363,1,1,0,257,257,55,0,10,0,1,0,0,0,1,20992058,0,0,0,11421,0,0,0,4,500,0,211,6,0,1,13,39,1081401523,375211651,1346921,96040,0,0,177,0,0,0,0,0,0,0,4,2,0,0,1190,1190,1190,1190,1000,0,0,0,0,0,0,0,0,31,1778,1779,0,59,7,-992,-6,3,0,49,0.1821543,0,-19,1,0,57,0,-0.6884298,-2.499772,0,0,1081401240,375211590,0,0,3,6,28,360985000,2325,1,3,0,5,30,-0.58936,-2.504724,17792,0,0,1011,0,0,0,0,0,0,0,0,0,0,0,0,0,0,0,0,0,0,0,0,0,0,0,0,0,0,0,0,0,0,0,0,0,0,0,0,0,0,0,0,0,0,0,0,0,0,0,0,0,0,0,0,0,0,0,0,0,0,0,0,0,0,0,0,0,0,0,0,0,0,0,0,0,0,0,0,0,0,0,0,0,0,0,0,0,0,0,0,0,0,0,0,0,0,0,0,0,0,0,0,0,0,0,0,0,0,0,0,0,0,0,0,0,0,0,0,0,0,0,0,0,0,0,0,0,0,0,0,0,0,0,0,0,0,0,0,0,0,0,0,0,0,0,0,0,0,549559411,1,2,1,0,0,0,0,0,0,0,0,0,0,0,0,0,0,0,0,0,0,0,0,0,0,0,0,0,0,0,0,0,0,0,0,0,0,0,0,0,0,0,0,19,0,0,1,0,0,1,1,1,1,2,0,0,0,0,0,0,2,0,0,0,0,0,0,0,0,0,0,0,0,0,0,0,0,0,0,0,0,0,0,0,0,2,0,0,0,0,0,0,0,2,0,0,0,0,0,0,0,0,0,0,0,0,0,0,1000,0,0,0,1000,2,0,1,1,0,2057,0,0,0,0,0,0,0,0,0,0,0,0,0,0,0,0,0,0,0,0,0,0,0,0,0,0,0,0,0,0,0,0,0,0,0,0,0,0,0,0,0,0,0,0,0,0,0,0,0,0,0,0,0,0,0,0,0,0,0,0,0,0,0,0,0,0,0,0,0,0,0,0,0,0,0,0,0,0,0,0,0,0,0,0,0,0,0,0,0,0,0,0,0,0,0,0,0,0,0,0,0,0,0,0,0,0,0,0,0,0,0,0,0,0,0,0,0,0,0,0,0,0,0,0,0,0,0,0,0,0,0,0,0,0,0,0,0,0,0,0,0,0,0,0,0,0,0,0,0,0
96541,363,1,2,0,257,256,55,0,10,0,1,0,0,0,1,20992058,0,0,0,11421,0,0,0,4,501,0,211,6,0,1,13,54,1081401523,375211651,1346921,96540,0,0,177,0,0,0,0,0,0,0,4,2,0,0,1190,1190,1190,1190,1000,0,0,0,0,0,0,0,0,31,1778,1779,0,59,6,-992,-6,3,0,49,0.1864842,0,0,1,0,57,0,-0.6861336,-2.495363,0,1,1081401241,375211590,0,0,3,6,28,360985200,2325,1,3,0,5,30,-0.58936,-2.504724,17792,0,0,1011,0,0,67,7,0,4390912,83544,0,0,0,0,0,0,0,0,0,0,0,0,0,0,0,0,0,0,0,0,0,0,0,0,0,0,0,0,0,0,0,0,0,0,0,0,0,0,0,0,0,0,0,0,0,0,0,0,0,0,0,0,0,0,0,0,0,0,0,0,0,0,0,0,0,0,0,0,0,0,0,0,0,0,0,0,0,0,0,0,0,0,0,0,0,0,0,0,0,0,0,0,0,0,0,0,0,0,0,0,0,0,0,0,0,0,0,0,0,0,0,0,0,0,0,0,0,0,0,0,0,0,0,0,0,0,0,0,0,0,0,0,0,0,0,0,0,0,0,549559411,1,2,1,0,0,0,0,0,0,0,0,0,0,0,0,0,0,0,0,0,0,0,0,0,0,0,0,0,0,0,0,0,0,0,0,0,0,0,0,0,0,0,0,19,0,0,1,0,0,1,1,1,1,2,0,0,0,0,0,0,11,0,0,0,0,0,0,0,0,0,0,0,0,0,0,0,0,0,0,0,0,0,0,0,0,2,0,0,0,0,0,0,0,2,0,0,0,0,0,0,0,0,0,0,0,0,0,0,1000,0,0,0,1000,2,0,1,1,0,2057,0,0,0,0,4550,4536,4552,4559,0,0,0,0,5481,5533,5443,5723,5481,5534,5442,5722,1,1,1,1,96472,0,0,0,0,0,0,0,0,0,0,0,0,1,0,1,0,0,1,0,0,0,0,0,0,0,0,0,0,0,0,0,0,0,0,0,0,0,0,0,0,0,0,0,0,0,0,0,0,0,0,2,0,0,0,0,0,96472,302,262,-3054,262,1520,1480,1520,1600,0,0,0,0,0,0,1,0,29,990,1151,0,0,2,0,0,0,0,0,0,0,5352,5354,1,0,0,0,0,0,80,-78,0,0,0,0,10,3000,0,-1375,3000,0,0,3000,0,0,0,0,0,49,0,0,0,0,0,0,1,0,0,0,0
97041,363,1,3,0,257,256,55,0,10,0,1,0,0,0,1,20992058,0,0,0,11421,0,0,0,4,501,0,211,6,0,1,13,179,1081401523,375211651,1346921,97041,0,0,177,0,0,0,0,0,0,0,4,2,0,0,1190,1190,1190,1190,1000,0,0,0,1516,1630,1846,1760,0,31,1778,1780,0,59,6,-992,-6,3,0,49,0.1869186,1,22,6,1,57,0,-0.6887506,-2.499656,0,0,1081401240,375211590,0,0,3,6,28,360986000,2325,2,3,0,5,30,-0.58936,-2.504724,17788,0,0,1011,0,0,0,0,0,0,0,0,0,0,0,0,0,0,0,0,0,0,0,0,0,0,0,0,0,0,0,0,0,0,0,0,0,0,0,0,0,0,0,0,0,0,0,0,0,0,0,0,0,0,0,0,0,0,0,0,0,0,0,0,0,0,0,0,0,0,0,0,0,0,0,0,0,0,0,0,0,0,0,0,0,0,0,0,0,0,0,0,0,0,0,0,0,0,0,0,0,0,0,0,0,0,0,0,0,0,0,0,0,0,0,0,0,0,0,0,0,0,0,0,0,0,0,0,0,0,0,0,0,0,0,0,0,0,0,0,0,0,0,0,0,0,0,0,0,0,549559411,1,2,1,0,0,0,0,0,0,0,0,0,0,0,0,0,0,0,0,0,0,0,0,0,0,0,0,0,0,0,0,0,0,0,0,0,0,0,0,0,0,0,0,19,0,0,1,0,0,1,1,1,1,2,0,0,0,0,0,0,21,0,0,0,0,0,0,0,0,0,0,0,0,0,0,0,0,0,0,0,0,0,0,0,0,2,0,0,0,0,0,0,0,2,0,0,0,0,0,0,0,0,0,0,0,0,0,0,1000,0,0,0,1000,2,0,1,1,0,2057,1004,888,1076,850,4550,4535,4551,4560,238,219,214,237,5491,5537,5429,5736,5490,5536,5431,5735,1,1,1,1,96972,0,0,0,0,0,0,0,0,0,0,0,0,1,0,1,0,0,1,0,0,0,0,0,0,0,0,0,0,0,0,0,0,0,0,0,0,0,0,0,0,0,0,0,0,0,0,0,0,0,0,2,0,0,0,0,0,96972,258,224,-3135,224,1520,1480,1520,1600,0,0,0,0,0,0,0,0,30,990,1169,0,0,2,0,0,0,0,0,0,0,5359,5359,1,0,0,0,0,0,80,-78,0,0,0,0,12,3000,0,-1374,3000,0,0,3000,0,0,0,0,0,49,0,0,0,0,0,0,1,0,0,0,0
97541,363,1,4,0,257,253,55,0,10,0,1,0,0,0,1,20992058,0,0,0,11421,0,0,0,4,501,0,211,6,0,1,13,257,1081401523,375211651,1346921,97540,0,0,177,0,0,0,0,0,0,0,4,2,0,0,1190,1190,1190,1190,1000,0,0,0,2278,2316,2238,2270,0,31,1778,1780,0,59,6,-992,-5,3,0,49,0.1921737,4,69,2,2,58,0,-0.6883482,-2.498615,0,0,1081401240,375211590,0,0,2,6,28,360986600,2325,1,3,0,5,30,-0.58936,-2.504724,17788,0,0,1011,0,0,0,0,0,0,0,0,0,0,0,0,0,0,0,0,0,0,0,0,0,0,0,0,0,0,0,0,0,0,0,0,0,0,0,0,0,0,0,0,0,0,0,0,0,0,0,0,0,0,0,0,0,0,0,0,0,0,0,0,0,0,0,0,0,0,0,0,0,0,0,0,0,0,0,0,0,0,0,0,0,0,0,0,0,0,0,0,0,0,0,0,0,0,0,0,0,0,0,0,0,0,0,0,0,0,0,0,0,0,0,0,0,0,0,0,0,0,0,0,0,0,0,0,0,0,0,0,0,0,0,0,0,0,0,0,0,0,0,0,0,0,0,0,0,0,549559411,1,2,1,0,0,0,0,0,0,0,0,0,0,0,0,0,0,0,0,0,0,0,0,0,0,0,0,0,0,0,0,0,0,0,0,0,0,0,0,0,0,0,0,19,0,0,1,0,0,1,1,1,1,2,0,0,0,0,0,0,30,0,0,0,0,0,0,0,0,0,0,0,0,0,0,0,0,0,0,0,0,0,0,0,0,2,0,0,0,0,0,0,0,2,0,0,0,0,0,0,0,0,0,0,0,0,0,0,1000,0,0,0,1000,2,0,1,1,0,2057,2266,2312,2236,2278,4549,4535,4552,4560,85,104,84,73,5487,5504,5434,5726,5487,5504,5432,5728,1,1,1,1,97472,0,0,0,0,0,0,2,0,0,0,0,0,1,0,1,0,0,2,0,0,0,0,0,0,0,0,0,0,0,0,0,0,0,0,0,0,0,0,0,0,0,0,0,0,0,0,0,0,0,0,2,0,0,0,0,0,97472,0,0,-3349,0,1520,1480,1520,1600,0,0,0,0,0,0,0,0,58,990,2284,0,0,2,0,0,0,0,0,0,0,5355,5355,1,0,0,0,0,0,80,-78,0,0,0,0,16,3000,0,-1375,3000,0,0,3000,0,0,0,0,0,49,0,0,0,0,0,0,1,0,0,0,0
98041,363,1,5,64,257,256,55,0,10,0,1,0,0,0,1,20992058,0,0,0,11421,0,0,0,4,501,0,211,6,0,1,13,312,1081401240,375211590,1346727,98041,0.1,-0.5000001,177,0,0,0,0,0,0,0,4,2,0,0,1190,1190,1190,1190,1000,0,0,0,2286,2314,2236,2268,0,31,1778,1779,179,59,6,-992,-6,3,0,49,0.1958338,6,20,1,2,58,0,-0.6882908,-2.499238,0,0,1081401240,375211590,0,0,2,6,28,360987000,2325,1,3,0,5,29,-0.58936,-2.504724,17788,0,0,1011,0,0,0,0,0,0,0,98003,375211610,1081401205,1346726,375211612,1081401273,1346735,0,0,5,176,375211601,1081401205,1346733,0,0,0,0,0,0,0,28,28,6,6,6,1,0,0,2,29,30,1779,1779,1779,-41,339,-6,317,-0.58936,-2.504724,-0.5886801,-2.503307,0,0,0,0,6,3,201,1,-3446,1,2,1,20,0,0,0,0,335,-29,17784,-1,-1,1,-0.6880944,-2.498482,0.1950811,0,0,1,100,7,1,-537,65,18,19,4,0.1871338,1346726,0,0,0,1,0,0,0,0,0,0,0,0,0,0,0,0,0,0,0,0,0,0,0,0,0,0,0,0,0,0,0,0,0,0,0,0,0,0,0,0,0,0,0,0,0,0,0,0,0,0,0,0,0,0,0,0,0,549559411,1,3,1,0,0,0,0,0,0,0,0,0,0,0,0,0,0,0,0,0,0,0,0,0,0,0,0,0,0,0,0,0,0,0,0,0,0,0,0,1,0,0,0,19,0,0,1,0,0,1,1,1,1,2,0,0,0,0,0,0,40,0,0,0,0,0,0,0,0,0,0,0,0,0,0,0,0,0,0,0,0,0,0,0,0,2,0,0,0,0,0,0,0,2,0,0,0,0,0,0,0,0,0,0,0,0,0,0,1000,0,0,0,1000,2,0,1,1,0,2057,2266,2316,2234,2286,4549,4535,4551,4561,96,69,86,84,5498,5515,5431,5728,5498,5515,5431,5726,1,1,1,1,97972,0,0,0,0,0,0,2,0,0,0,0,0,1,0,1,0,0,2,0,0,0,0,0,0,0,0,0,0,0,0,0,0,0,0,0,0,0,0,0,0,0,0,0,0,0,0,0,0,0,0,2,0,0,0,0,0,97972,0,0,-3436,0,1520,1480,1520,1600,0,0,0,0,0,0,0,0,52,990,2050,0,0,2,0,0,0,0,0,0,0,5358,5359,1,0,0,0,0,0,80,-78,0,0,0,0,17,3000,0,-1374,3000,0,0,3000,0,0,0,0,0,49,0,0,0,0,0,0,1,0,0,0,0
98542,363,1,6,564,257,256,55,0,10,0,1,0,0,0,1,20992058,0,0,0,11420,0,0,0,4,501,0,211,6,0,1,13,312,1081401240,375211590,1346727,98541,0.09190481,-0.945797,177,0,0,0,0,0,0,0,4,2,0,0,1190,1190,1247,1243,1000,0,0,0,2312,2316,2428,2266,0,31,1778,1779,-98,59,7,-992,-6,3,0,49,0.1972742,5,-6,0,1,58,0,-0.6883003,-2.498699,0,0,1081401240,375211590,0.005,0,3,6,28,360987600,2325,1,3,0,5,29,-0.58936,-2.504724,17788,0,0,1011,0,0,0,0,0,0,0,98504,375211610,1081401205,1346730,375211612,1081401273,1346736,0,0,5,8,375211601,1081401205,1346732,0,0,0,0,0,0,0,28,28,6,6,6,1,-1,0,0,29,30,1778,1778,1778,-41,329,-5,315,-0.58936,-2.504724,-0.5885512,-2.502821,0,0,0,1,6,3,201,1,-3462,0,1,1,20,0,0,0,0,299,-7,17781,-25,-23,4,-0.7366406,-2.542126,0.1969713,0,0,1,100,7,1,-546,61,18,19,0,0.1831055,1346730,0,0,0,1,0,32768,32780,32903,32740,32901,33791,32835,32844,33777,32766,32839,33789,32774,32773,32767,32782,32779,32776,100,100,100,100,50,52,52,52,361,0,0,0,0,0,53,99,0,177,0,0,0,0,0,8,-2,-4,-3,-4,14135,0,0,2385,0,131,549559411,1,3,1,0,0,0,0,0,0,0,0,0,0,0,0,0,0,0,0,0,0,0,0,0,0,0,0,0,0,0,0,0,0,0,0,0,0,0,0,1,0,0,0,19,0,0,1,0,0,1,1,1,1,2,0,0,0,0,0,0,50,0,0,0,0,0,0,0,0,0,0,0,0,0,0,0,0,0,0,0,0,0,0,0,0,2,0,0,0,0,0,0,0,2,0,0,0,0,0,0,0,0,0,0,0,0,0,0,1000,0,0,0,1000,2,0,1,1,0,2057,2270,2314,2236,2286,4550,4536,4551,4560,121,81,122,97,5490,5533,5428,5723,5490,5533,5427,5723,1,1,1,1,98473,0,0,0,0,19,0,1,0,0,0,0,1,1,0,1,0,0,2,0,0,0,0,0,0,0,0,0,0,0,0,0,0,0,0,1,0,0,0,0,0,0,0,-68.77836,-249.8338,0,0,0,0,0,0,2,0,0,0,0,0,98473,0,0,-3459,0,1520,1480,1520,1600,0,0,19,0,0,0,0,0,52,989,2050,0,0,3,0,0,0,0,0,0,0,5366,5366,1,0,0,0,0,0,80,-78,0,0,0,0,9,3000,0,-1365,3000,0,0,3000,0,0,0,0,0,49,0,0,0,0,1,0,1,0,0,0,0
99041,363,1,7,1064,257,253,55,0,10,0,1,0,0,0,1,20992058,0,0,0,11419,0,0,0,4,500,0,211,6,0,1,13,1773,1081401240,375211590,1346727,99041,0.002608609,-0.8273824,177,0,0,0,0,0,0,0,4,2,0,0,1377,1360,1393,1429,1000,0,0,0,5182,4116,4896,3696,3,26,1779,1778,276,59,6,-994,-2,-1,2,49,0.1951834,14,152,0,0,57,0,-0.6892622,-2.499807,0,0,1081401240,375211590,0.006,0,3,6,28,360988000,2325,1,3,0,5,29,-0.58936,-2.504724,17788,0,0,1011,0,0,0,0,0,0,0,99003,375211610,1081401205,1346723,375211612,1081401273,1346732,0,0,5,176,375211601,1081401205,1346733,0,0,0,0,0,0,0,28,28,6,6,6,1,-1,0,1,30,30,1779,1779,1779,-39,349,-3,313,-0.58936,-2.504724,-0.5891126,-2.503603,0,0,0,0,6,3,201,1,-3598,0,0,1,20,0,0,0,0,271,0,17790,-42,-37,6,-0.8232774,-2.619486,0.1953844,0,0,0,100,7,1,-549,138,19,19,3,0.1900635,1346723,0,0,0,1,0,32808,32795,32945,32672,32916,33550,32736,32880,33561,32684,32876,33540,32753,32757,32759,32734,32779,32769,100,100,100,100,50,52,52,52,393,0,0,0,0,0,53,99,0,177,0,0,0,0,0,8,-8,-5,-4,-5,17219,0,0,2385,0,131,549559411,1,3,1,0,0,0,0,0,0,0,0,0,0,0,0,0,0,0,0,0,0,0,0,0,0,0,0,0,0,0,0,0,0,0,0,0,0,0,0,1,0,0,0,19,0,0,1,0,0,1,1,1,1,2,0,0,0,0,0,0,59,0,0,0,0,0,0,0,0,0,0,0,0,0,0,0,0,0,0,0,0,0,0,0,0,2,0,0,0,0,0,0,0,2,0,0,0,0,0,0,0,0,0,0,0,0,0,0,1000,0,0,0,1000,2,0,1,1,0,2057,3696,3628,4490,4686,4550,4535,4551,4560,619,376,557,466,5495,5544,5431,5732,5495,5546,5431,5733,1,1,1,1,98973,0,0,0,0,36,-5,0,0,0,0,0,1,1,0,1,0,0,2,0,0,0,0,0,0,0,0,0,0,-150,0,0,0,0,0,1,0,0,0,0,0,0,0,-68.77836,-249.8338,0,0,0,0,0,0,2,0,0,0,0,0,98973,0,0,-3579,0,1520,1480,1520,1600,0,0,36,0,0,0,0,0,93,989,3651,0,0,3,0,0,0,0,0,0,0,5369,5369,1,0,0,0,0,0,80,-78,0,0,0,0,-51,3000,0,-1280,3000,0,2,3000,0,0,0,0,0,49,0,0,0,0,1,0,1,0,0,0,0
99541,363,1,8,1564,255,251,55,0,10,0,1,0,0,0,1,20992058,0,0,0,11421,4,0,0,4,500,0,211,6,0,1,13,1914,1081401240,375211590,1346727,99541,0.5337968,3.362987,177,0,0,0,0,0,0,0,4,2,0,0,1529,1510,1439,1446,1000,0,79,0,6528,7904,6856,8224,7,-39,1772,1777,1481,32,-9,-1063,-2,-146,-16,79,0.1256777,19,165,-28,-33,26,0,-0.7285105,-2.490502,-13,4,1081401241,375211586,-0.05,0,8,6,28,360988600,2325,1,3,0,5,29,-0.6116,-2.504724,17788,-10,2,1011,0,0,0,0,0,0,0,99503,375211608,1081401205,1346769,375211610,1081401273,1346777,0,0,7,8,375211598,1081401206,1346775,0,0,0,0,0,0,0,28,28,6,6,6,1,-12,2,-32,29,29,1771,1771,1771,-53,279,44,249,-0.6116,-2.504724,-0.6201532,-2.497926,-9,3,-13,5,6,3,201,1,-4159,-28,-29,1,20,0,0,0,0,240,-619,17723,-66,-34,-26,-0.8777784,-2.625866,0.1381012,-3,1,-3,100,7,1,-574,213,16,18,-24,0.1604004,1346769,0,0,0,1,0,32728,32805,32935,32769,32890,33943,32920,32738,33950,32837,32744,33956,32701,32641,32781,32735,32675,32775,100,100,100,100,50,52,52,52,360,1,0,0,0,0,53,84,3,83,2,0,0,0,0,8,-700,-4,-2,-4,14135,0,0,2385,0,131,549559411,1,3,1,0,0,0,0,0,0,0,0,0,0,0,0,0,0,0,0,0,0,0,0,0,0,0,0,0,0,0,0,0,0,0,0,0,0,0,0,1,0,0,0,19,0,0,1,0,0,1,1,1,1,2,0,0,0,0,0,0,69,0,0,0,0,0,0,0,0,0,0,0,0,0,0,0,0,0,0,0,0,0,0,0,0,2,0,0,0,0,0,0,0,2,0,0,0,0,0,0,0,0,0,0,0,0,0,0,1000,0,0,0,1000,2,0,1,1,0,2057,7830,7470,6588,6106,4549,4535,4551,4560,1018,1261,1006,1348,5484,5543,5452,5723,5483,5541,5452,5723,1,1,1,1,99473,0,0,0,0,49,-23,-29,20,0,0,0,1,1,0,1,0,0,2,0,0,0,0,0,0,0,0,0,0,-150,0,3,0,0,0,1,0,0,0,0,0,0,0,-68.77836,-249.8338,0,0,0,0,0,0,2,0,0,0,0,0,99473,0,0,-4075,0,1520,1480,1520,1600,0,0,49,0,0,0,11,0,366,989,14388,0,0,3,0,0,0,0,0,-3,0,5361,5361,1,0,0,0,0,0,79,-78,1,0,0,0,-199,3000,0,1689,3000,0,-13,3000,0,0,0,0,5,80,0,0,0,0,1,0,1,0,0,0,0
100041,363,1,9,2064,253,249,55,0,10,0,1,0,0,0,1,20992058,0,0,0,11422,2052,0,0,4,500,0,211,6,0,1,13,1992,1081401240,375211590,1346727,100041,0.278593,7.421296,177,0,0,0,0,0,0,0,4,2,0,0,1569,1583,1460,1496,1000,0,79,0,7112,8970,6430,8174,1,-6,1789,1793,1648,-10,-1,-1011,-20,62,33,79,-0.03311812,7,-260,-21,-40,13,0,-0.8646401,-2.477186,-31,1,1081401242,375211576,-0.141,0,12,6,28,360989000,2325,1,3,0,5,29,-0.68944,-2.487086,17895,-25,-2,1011,0,0,0,0,0,0,0,100004,375211596,1081401208,1346935,375211597,1081401276,1346933,0,0,5,176,375211586,1081401208,1346935,0,0,0,0,0,0,0,28,28,6,6,6,1,-26,2,-22,30,30,-1792,1786,-1792,144,-192,70,-334,-0.74504,-2.478266,-0.7481745,-2.479924,-26,1,-30,2,6,3,201,1,-4292,-21,-35,1,20,0,0,0,0,105,-256,17894,-71,-29,-26,-0.985132,-2.604476,-0.01807349,0,0,-27,100,7,1,-517,89,-1,7,-35,-0.01049805,1346935,0,0,0,1,0,32707,32750,32854,32732,32838,33859,32831,32776,33870,32713,32674,33824,32817,32861,32713,32849,32842,32744,100,100,100,100,50,52,52,52,283,2,1,0,0,0,53,84,3,83,2,0,0,0,0,8,242,-2,0,-1,16191,0,0,2385,0,131,549559411,1,3,1,0,0,0,0,0,0,0,0,0,0,0,0,0,0,0,0,0,0,0,0,0,0,0,0,0,0,0,0,0,0,0,0,0,0,0,0,1,0,0,0,19,0,0,1,0,0,1,1,1,1,2,0,0,0,0,0,0,79,0,0,0,0,0,0,0,0,0,0,0,0,0,0,0,0,0,0,0,0,0,0,0,0,2,0,0,0,0,0,0,0,2,0,0,0,0,0,0,0,0,0,0,0,0,0,0,1000,0,0,0,1000,2,0,1,1,0,2057,8174,8452,6506,7328,4550,4535,4551,4560,1045,1293,543,1529,5463,5550,5436,5726,5463,5550,5436,5728,1,1,1,1,99973,0,0,0,0,52,-46,-38,-30,0,0,0,1,1,0,1,0,0,2,0,0,0,0,0,0,0,0,0,0,-150,0,15,0,0,0,1,0,0,0,0,0,0,0,-68.77836,-249.8338,0,0,0,0,0,0,2,0,0,0,0,0,99973,0,0,-4351,0,1520,1480,1520,1600,0,0,52,0,0,0,30,0,544,989,21528,0,0,3,0,0,0,0,0,0,0,5365,5365,1,0,0,0,0,0,79,-65,1,0,0,0,-61,-11072,0,657,-11072,0,-1,-11072,0,0,0,0,14,80,0,0,0,0,1,0,1,0,0,0,0
100541,363,1,10,2564,252,249,55,0,10,0,1,0,0,0,1,20992058,0,0,0,11422,2052,0,0,4,499,0,211,6,0,1,13,1921,1081401240,375211590,1346727,100541,0.2608991,8.660687,177,0,0,0,0,0,0,0,4,2,0,0,1554,1530,1522,1497,1000,0,80,0,7016,8112,7160,8444,7,19,1772,1775,1610,-7,5,-1078,11,49,-34,80,-0.3174146,-1,-204,-47,-70,-22,0,-1.012538,-2.462852,-24,1,1081401244,375211560,-0.395,0,2,6,28,360989600,2325,1,3,0,5,29,-0.87848,-2.469447,17788,-29,1,1011,0,0,0,0,0,0,0,100503,375211584,1081401209,1347128,375211586,1081401277,1347132,0,0,8,16,375211572,1081401209,1347221,0,0,0,0,0,0,0,28,28,6,6,6,1,-31,1,-43,29,30,1795,1770,1795,-12,-83,14,-80,-0.87848,-2.469447,-0.9018274,-2.467408,-29,2,-24,1,6,3,201,1,-3704,-47,-66,1,20,0,0,0,0,111,61,17735,-57,-27,-60,-1.17012,-2.625527,-0.2919841,-4,-4,-37,100,7,1,-449,-10,-21,-12,-53,-0.2120361,1347128,0,0,0,1,0,32784,32728,32795,32679,32949,33922,32799,32892,33962,32733,32895,34024,32904,32739,32814,32892,32809,32818,100,100,100,100,50,52,52,52,200,2,2,0,0,0,53,84,3,83,2,0,0,0,0,8,-521,8,8,9,15163,0,0,2385,0,131,549559411,1,3,1,0,0,0,0,0,0,0,0,0,0,0,0,0,0,0,0,0,0,0,0,0,0,0,0,0,0,0,0,0,0,0,0,0,0,0,0,1,0,0,0,19,0,0,1,0,0,1,1,1,1,2,0,0,0,0,0,0,88,0,0,0,0,0,0,0,0,0,0,0,0,0,0,0,0,0,0,0,0,0,0,0,0,2,0,0,0,0,0,0,0,2,0,0,0,0,0,0,0,0,0,0,0,0,0,0,1000,0,0,0,1000,2,0,1,1,0,2057,8744,8172,7160,6562,4549,4535,4552,4560,1018,810,1182,1198,5462,5562,5445,5700,5463,5562,5445,5701,1,1,1,1,100473,0,0,0,0,52,-70,-67,12,0,0,0,1,1,0,1,0,0,2,0,0,0,0,0,0,0,0,0,0,-150,0,31,0,0,0,1,0,0,0,0,0,0,0,-68.77836,-249.8338,0,0,0,0,0,0,2,0,0,0,0,0,100473,0,0,-3720,0,1520,1480,1520,1600,0,0,52,0,0,0,26,0,671,989,26636,0,0,3,0,0,0,0,0,0,0,5351,5351,1,0,0,0,0,0,80,-41,1,0,0,0,-376,3000,0,-622,3000,0,9,3000,0,0,0,0,39,81,0,0,0,0,1,0,1,0,0,0,0
101041,363,1,11,3064,252,249,55,0,10,0,1,0,0,0,1,20992058,0,0,0,11422,4,0,0,4,499,0,211,6,0,1,13,2078,1081401240,375211590,1346727,101041,0.1165088,5.890543,177,0,0,0,0,0,0,0,4,2,0,0,1553,1556,1481,1498,1000,0,104,0,7126,8300,6810,8188,2,35,1779,1781,1573,-4,-1,-1034,-17,36,12,104,-0.7357224,-6,-106,-97,-90,-37,0,-1.060819,-2.468531,5,-1,1081401244,375211556,-0.696,0,9,6,28,360990000,2325,1,3,0,5,30,-0.96744,-2.469447,17785,-4,0,1011,0,0,0,0,0,0,0,101003,375211576,1081401209,1347605,375211578,1081401276,1347623,0,0,5,181,375211567,1081401209,1347634,0,0,0,0,0,0,0,28,28,6,6,6,1,5,-2,-97,30,30,-1735,1775,-1735,-21,324,65,256,-0.96744,-2.469447,-0.9658656,-2.471581,4,-1,6,0,6,3,201,1,-3310,-97,-89,1,20,0,0,0,0,-6,326,17786,-13,-17,-85,-1.184423,-2.610353,-0.7030237,-31,2,-78,100,7,1,-505,-62,-69,-46,-85,-0.6938477,1347605,0,0,0,1,0,32752,32795,32873,32776,32949,33861,32866,32921,33849,32798,32872,33862,32614,32757,32736,32648,32812,32722,100,100,100,100,50,52,52,52,149,2,2,0,0,0,53,84,3,83,2,0,0,0,0,8,-624,2,0,2,19275,0,0,2385,0,131,549559411,1,3,1,0,0,0,0,0,0,0,0,0,0,0,0,0,0,0,0,0,0,0,0,0,0,0,0,0,0,0,0,0,0,0,0,0,0,0,0,1,0,0,0,19,0,0,1,0,0,1,1,1,1,2,0,0,0,0,0,0,98,0,0,0,0,0,0,0,0,0,0,0,0,0,0,0,0,0,0,0,0,0,0,0,0,2,0,0,0,0,0,0,0,2,0,0,0,0,0,0,0,0,0,0,0,0,0,0,1000,0,0,0,1000,2,0,1,1,0,2057,8010,8008,7158,7236,4548,4535,4551,4561,794,1153,844,1104,5462,5571,5442,5704,5460,5572,5442,5702,1,1,1,1,100973,0,0,0,0,52,-89,-87,1,0,0,0,1,1,0,1,0,0,2,0,0,0,0,0,0,0,0,0,0,-150,0,37,0,0,0,1,0,0,0,0,0,0,0,-68.77836,-249.8338,0,0,0,0,0,0,2,0,0,0,0,0,100973,88,76,-3343,76,1520,1480,1520,1600,0,0,52,0,0,0,1,0,682,988,27068,0,0,3,0,0,0,0,0,1,0,5357,5355,1,0,0,0,0,0,96,-23,1,0,0,0,-117,3000,0,-1471,0,0,6,0,0,0,0,0,69,97,0,0,0,0,1,0,1,0,0,0,0
101541,363,1,12,3564,252,250,55,0,10,0,1,0,0,0,1,20992058,0,0,0,11423,2052,0,0,4,499,0,211,6,0,1,13,1835,1081401240,375211590,1346727,101541,0.4593693,2.56612,177,0,0,0,0,0,0,0,4,2,0,0,1545,1542,1457,1465,1000,0,157,0,6928,8024,6730,7966,3,0,1781,1787,1693,-1,2,-998,-6,-63,5,157,-1.212679,-11,-96,-101,-92,-36,0,-0.9450557,-2.471222,29,0,1081401243,375211567,-1.261,0,10,6,28,360990600,2325,1,3,0,5,29,-0.8896,-2.469447,17895,26,4,1011,0,0,0,0,0,0,0,101504,375211583,1081401209,1347993,375211584,1081401277,1347992,0,40,67,28,375211577,1081401208,1348103,0,0,0,0,0,0,0,28,27,6,6,6,1,27,4,-104,29,31,-1731,1777,-1731,-72,310,31,312,-0.8896,-2.469447,-0.8611741,-2.474535,27,4,30,0,6,3,201,1,-2953,-101,-95,1,20,0,0,0,0,-48,49,17814,13,-9,-90,-1.089495,-2.615178,-1.178936,-98,4,-94,100,7,5,-531,-107,-107,-91,-103,-1.076538,1347993,0,0,0,1,0,32858,32676,32893,32682,32958,33749,32778,32910,33752,32682,32866,33748,32725,32784,32768,32724,32728,32790,100,100,100,100,50,52,52,52,112,2,2,0,0,0,53,84,3,83,2,0,0,0,0,8,-229,0,-4,0,14135,0,0,2385,0,131,549559411,1,3,1,0,0,0,0,0,0,0,0,0,0,0,0,0,0,0,0,0,0,0,0,0,0,0,0,0,0,0,0,0,0,0,0,0,0,0,0,1,0,0,0,19,0,0,1,0,0,1,1,1,1,2,0,0,0,0,0,0,107,0,0,0,0,0,0,0,0,0,0,0,0,0,0,0,0,0,0,0,0,0,0,0,0,2,0,0,0,0,0,0,0,2,0,0,0,0,0,0,0,0,0,0,0,0,0,0,1000,0,0,0,1000,2,0,1,1,0,2057,8140,8240,6580,6944,4549,4535,4551,4559,652,1028,780,1085,5499,5522,5415,5702,5501,5525,5415,5704,1,1,1,1,101473,0,0,0,0,50,-88,-95,-8,0,0,0,1,1,0,2,0,0,2,0,0,0,0,0,0,0,0,0,0,-150,0,27,0,0,0,3,0,0,0,0,0,0,0,-68.77836,-249.8338,0,0,0,0,0,0,2,0,0,0,0,0,101473,347,301,-2967,301,1520,1480,1520,1600,0,0,50,0,0,0,27,0,663,987,26312,0,0,3,0,0,0,0,0,0,0,5362,5362,1,0,0,0,0,0,142,-15,1,0,0,0,-123,3000,0,-248,3000,0,1,3000,0,0,0,0,157,143,600,0,2,0,1,0,1,0,0,0,0
102041,363,1,13,4064,252,250,55,0,10,0,1,0,0,0,1,20992058,0,0,0,11423,2052,0,0,4,499,0,211,6,0,1,13,1906,1081401240,375211590,1346727,102041,0.2135259,1.000128,177,0,0,0,0,0,0,0,4,2,0,0,1544,1525,1457,1468,1000,0,198,0,6866,7880,6684,7916,5,-18,1779,1778,-1727,-5,2,-962,0,-34,-4,198,-1.616221,-15,-80,-77,-73,-20,0,-0.7994103,-2.475709,30,-2,1081401243,375211578,-1.603,0,2,6,28,360991000,2325,1,3,0,5,29,-0.7784,-2.478266,17895,31,0,1011,0,0,0,0,0,0,0,102003,375211598,1081401208,1348497,375211600,1081401276,1348505,0,0,5,172,375211590,1081401208,1348509,0,0,0,0,0,0,0,28,27,6,6,6,1,28,-6,-78,29,30,-1673,1774,-1674,42,10,42,3,-0.7228,-2.478266,-0.7146897,-2.477586,29,-5,30,-2,6,3,201,1,-2836,-77,-76,1,20,0,0,0,0,-56,-129,17801,18,-3,-70,-0.9339193,-2.614564,-1.589504,-88,0,-86,100,7,16,-494,-149,-157,-136,-83,-1.575317,1348497,0,0,0,1,0,32780,32887,32871,32721,32729,33822,32832,32657,33809,32801,32597,33770,32722,32772,32776,32737,32842,32786,100,100,100,100,50,52,52,52,71,1,2,0,0,0,53,74,13,131,11,0,0,0,0,8,287,7,0,8,17219,0,0,2385,0,131,549559411,1,9,1,0,0,0,0,0,0,0,0,0,0,0,0,0,0,0,0,0,0,0,0,0,0,0,0,0,0,0,0,0,0,0,0,0,0,0,0,1,0,0,0,19,0,0,5,0,0,1,1,1,1,2,0,0,0,0,0,0,117,0,0,0,0,0,0,0,0,0,0,0,0,0,0,0,0,0,0,0,0,0,0,0,0,2,0,0,0,0,0,0,0,2,0,0,0,0,0,0,0,0,0,0,0,0,0,0,1000,0,0,0,1000,2,0,1,1,0,2057,7916,7950,6684,6886,4548,4535,4551,4560,850,1071,774,1091,5484,5553,5413,5725,5485,5554,5411,5725,1,1,1,1,101973,0,0,0,0,50,-71,-75,-5,0,0,0,1,1,0,3,0,0,2,0,0,0,0,0,0,0,0,0,0,-150,0,12,0,0,0,3,0,0,0,0,0,0,0,-68.77836,-249.8338,0,0,0,0,0,0,2,0,0,0,0,0,101973,399,347,-2829,347,1520,1480,1520,1600,0,0,50,0,0,0,31,0,586,987,23273,0,0,9,0,0,0,0,0,0,0,5371,5372,1,0,0,0,0,0,185,-25,1,0,0,0,-272,3000,0,692,3000,0,-7,3000,0,0,0,0,182,186,600,0,2,0,1,0,1,0,0,0,0
102541,363,1,14,4564,252,249,55,0,10,0,1,0,0,0,1,20992058,0,0,0,11424,4,0,0,4,499,0,211,6,0,1,13,1976,1081401240,375211590,1346727,102541,-0.05513477,1.144103,177,-400,0,0,0,0,0,0,4,2,0,0,1548,1538,1462,1474,1000,0,229,0,6864,7918,6654,7980,1,-22,1779,1785,-1674,-4,4,-962,-15,-6,-1,229,-1.926791,-18,-53,-61,-56,-5,0,-0.6943169,-2.489864,17,-3,1081401241,375211589,-2.031,0,10,6,28,360991600,2325,1,3,0,5,29,-0.62272,-2.487086,17788,19,0,1011,0,0,67,7,0,4390912,99896,102503,375211607,1081401207,1348754,375211609,1081401275,1348758,0,0,7,8,375211600,1081401206,1348822,0,0,0,0,0,0,0,28,28,6,6,6,1,19,-1,-61,29,30,-1674,1772,-1675,-46,-143,56,-179,-0.62272,-2.487086,-0.6026207,-2.491762,19,0,17,-2,6,3,201,1,-3144,-61,-58,1,20,0,0,0,0,-128,-161,17793,13,3,-51,-0.8145921,-2.625895,-1.905984,-82,-1,-69,100,7,26,-487,-175,-182,-173,-62,-1.828247,1348754,0,0,0,1,0,32774,32851,33024,32818,32611,33817,32904,32536,33731,32845,32546,33806,32772,32782,32766,32798,32831,32780,100,100,100,100,50,52,52,52,50,2,2,0,0,0,53,74,13,131,11,0,0,0,0,8,239,5,-6,5,14135,0,0,2385,0,131,549559411,1,6,1,0,0,0,0,0,0,0,0,0,0,0,0,0,0,0,0,0,53,167,147,50,195,133,74,154,181,136,189,243,113,16,158,92,1,1,0,1,36,64,5,14,0,5,2,0,0,2,7,1,7,2,0,0,0,0,0,0,127,0,0,0,0,1,17,1081401240,375211588,60,16,0,2,1,0,0,0,0,0,0,0,0,0,0,0,2,0,0,-6000,0,1,0,0,2,0,0,0,0,0,0,0,0,0,0,0,0,0,0,1000,0,0,0,1000,4,0,1,1,0,2057,7990,7918,6616,6834,4549,4535,4551,4560,892,910,786,1163,5497,5561,5432,5747,5498,5561,5432,5747,1,1,1,1,102473,0,0,0,0,50,-57,-58,-2,0,0,0,1,1,0,3,0,0,2,0,0,0,0,0,0,0,0,0,0,-150,0,2,0,0,0,3,0,0,0,0,0,0,0,-68.77836,-249.8338,0,0,0,0,0,1,3,0,0,0,0,0,102473,275,239,-3104,239,1520,1480,1520,1600,0,0,50,0,0,0,19,0,593,986,23543,0,0,9,0,0,0,0,0,2,0,5358,5357,1,0,0,0,0,0,227,-23,1,0,0,0,-81,3000,0,983,3000,0,-3,3000,0,0,0,0,235,228,600,0,2,0,1,0,1,0,0,0,0
103041,363,1,15,5064,252,249,55,0,10,0,1,0,0,0,1,20992058,0,0,0,11424,4,0,0,4,499,0,211,6,0,1,13,1937,1081401240,375211590,1346727,103041,-0.2138811,1.34666,177,-400,0,0,0,0,0,0,4,2,0,0,1554,1533,1470,1478,1000,0,256,0,6974,7900,6698,8090,2,-17,1778,1786,-1613,-8,8,-985,-3,13,-2,256,-2.17326,-21,-50,-41,-47,0,0,-0.6433202,-2.501109,7,-2,1081401240,375211593,-2.229,0,9,6,28,360992000,2325,1,3,0,5,29,-0.56712,-2.495905,17788,14,0,1011,0,0,67,8,0,4390912,99980,103005,375211614,1081401205,1349049,375211615,1081401273,1349059,0,0,7,179,375211604,1081401205,1349073,0,0,0,0,0,0,0,28,27,6,6,6,1,4,-2,-42,29,30,-1676,1770,-1677,-49,-96,18,-217,-0.54488,-2.504724,-0.5488114,-2.501421,4,-1,8,-2,6,3,201,1,-3164,-41,-50,1,20,0,0,0,0,-145,-98,17785,9,9,-43,-0.7586536,-2.636978,-2.161239,-48,-2,-53,100,7,34,-450,-203,-212,-201,-47,-2.124634,1349049,0,0,0,1,0,32843,32759,32809,32667,32868,33841,32802,32755,33844,32741,32747,33815,32773,32783,32771,32779,32755,32790,100,100,100,100,50,52,52,52,49,2,2,0,0,0,53,74,13,131,11,0,0,0,0,8,523,2,3,2,16191,0,0,2385,0,131,549559411,1,6,1,0,0,0,0,0,0,0,0,0,0,0,0,0,0,0,0,0,53,167,147,50,195,133,74,154,181,136,189,243,113,16,158,92,1,1,0,1,36,64,5,14,0,5,2,0,0,2,7,1,7,2,0,0,0,0,0,0,136,0,0,0,0,1,17,1081401240,375211588,60,16,0,2,1,0,0,0,0,0,0,0,0,0,0,0,2,0,0,-6000,0,1,0,0,2,0,0,0,0,0,0,0,0,0,0,0,0,0,0,1000,0,0,0,1000,4,0,1,1,0,2057,8084,7904,6706,6978,4548,4535,4551,4559,890,1001,790,1208,5487,5567,5453,5722,5487,5567,5453,5723,1,1,1,1,102973,0,0,0,0,50,-49,-49,0,4,0,0,1,1,0,3,0,0,2,0,0,0,0,0,0,0,-400,0,0,-250,0,3,0,0,0,3,0,0,0,0,0,0,0,-68.77836,-249.8338,0,0,0,0,0,1,3,0,0,0,0,0,102973,215,186,-3201,186,1520,1480,1520,1600,0,0,50,0,0,0,9,0,591,986,23453,0,0,6,0,0,0,0,0,2,0,5362,5362,1,0,0,0,0,0,248,-25,1,0,0,0,-116,3000,0,793,3000,0,-3,3000,0,0,0,0,246,249,600,0,2,0,1,0,1,-900,0,0,0
103541,363,1,16,5564,252,248,55,0,10,0,1,0,0,0,1,20992058,0,0,0,11423,4,0,0,4,500,0,211,6,0,1,13,1765,1081401240,375211590,1346727,103541,-0.4541728,1.888922,177,-400,0,0,0,0,0,0,4,2,0,0,1576,1571,1497,1499,1000,0,279,0,7036,8264,6952,8356,-4,-14,1777,1777,-1606,-9,6,-1030,-22,7,-3,279,-2.420219,-23,-40,-38,-61,-18,0,-0.6327924,-2.522477,0,-3,1081401237,375211595,-2.523,0,4,6,28,360992600,2325,1,3,0,5,29,-0.53376,-2.522363,17788,0,-2,1011,0,0,0,0,0,0,0,103503,375211615,1081401203,1349245,375211617,1081401271,1349239,0,0,5,12,375211606,1081401203,1349312,0,0,0,0,0,0,0,28,28,6,6,6,1,0,-3,-39,29,30,-1684,1767,-1685,-24,-149,21,-172,-0.53376,-2.522363,-0.532331,-2.525079,0,-2,0,-2,6,3,201,1,-2963,-38,-56,1,20,0,0,0,0,-240,-52,17772,8,19,-52,-0.7365225,-2.643197,-2.398237,-57,-6,-42,100,7,42,-410,-223,-231,-225,-47,-2.318726,1349245,0,0,0,1,0,32661,32774,32910,32742,32834,33788,32831,32762,33786,32866,32781,33827,32745,32805,32767,32753,32854,32761,100,100,100,100,50,52,52,52,46,2,2,0,0,0,53,74,13,131,11,0,0,0,0,8,128,6,8,6,14135,0,0,2385,0,131,549559411,1,6,1,0,0,0,0,0,0,0,0,0,0,0,0,0,0,0,0,0,53,167,147,50,195,133,74,154,181,136,189,243,113,16,158,92,1,1,0,1,36,64,5,14,0,5,2,0,0,2,7,1,7,2,0,0,0,0,0,0,146,0,0,0,0,1,17,1081401240,375211588,60,16,0,2,1,0,0,0,0,0,0,0,0,0,0,0,2,0,0,-6000,0,1,0,0,2,0,0,0,0,0,0,0,0,0,0,0,0,0,0,1000,0,0,0,1000,4,0,1,1,0,2057,8268,8102,6968,7066,4548,4535,4550,4560,847,1185,988,1048,5511,5564,5459,5716,5512,5564,5459,5718,1,1,1,1,103473,0,0,0,0,53,-64,-56,4,4,0,0,1,1,0,3,0,0,2,0,0,0,0,0,0,0,-400,0,0,-250,0,5,0,0,0,3,0,0,0,0,0,0,0,-68.77836,-249.8338,0,0,0,0,0,1,3,0,0,0,0,0,103473,342,297,-2971,297,1520,1480,1520,1600,0,0,53,0,0,0,3,0,605,986,24028,0,0,6,0,0,0,0,0,3,0,5343,5344,1,0,0,0,0,0,276,-24,1,0,0,0,182,3000,0,694,3000,0,5,3000,0,0,0,0,285,277,600,0,2,0,1,0,1,-900,0,0,0
104041,363,1,17,6064,251,247,55,0,10,0,1,0,0,0,1,20992058,0,0,0,11424,4,0,0,4,500,0,211,6,0,1,13,1890,1081401240,375211590,1346727,104041,0.330936,1.984243,177,-400,0,0,0,0,0,0,4,2,0,0,1582,1588,1511,1517,1000,0,325,0,7338,8386,7130,8326,2,-5,1779,1780,-1630,-12,1,-1073,9,23,5,325,-2.822491,-25,-52,-84,-98,-56,0,-0.6447098,-2.509799,-2,3,1081401238,375211594,-2.783,0,5,6,28,360993000,2325,2,3,0,5,29,-0.53376,-2.522363,17893,-1,0,1011,0,0,0,0,0,0,0,104003,375211614,1081401204,1349676,375211616,1081401271,1349677,0,36,43,8,375211605,1081401204,1349707,0,0,0,0,0,0,0,28,28,6,6,6,1,-1,9,-83,29,30,-1682,1770,-1683,-25,-51,-43,-142,-0.54488,-2.513544,-0.543963,-2.515609,0,9,-1,3,6,3,201,1,-2791,-84,-95,1,20,0,0,0,0,-195,56,17794,15,34,-91,-0.7327303,-2.605483,-2.787074,-83,0,-67,100,7,49,-403,-250,-275,-254,-83,-2.75415,1349676,0,0,0,1,0,32785,32741,32911,32731,32883,33886,32855,32817,33875,32734,32832,33871,32803,32745,32753,32802,32802,32761,100,100,100,100,50,52,52,52,44,2,2,0,0,0,53,74,13,131,11,0,0,0,0,8,-713,5,5,5,16191,0,0,2385,0,131,549559411,1,6,1,0,0,0,0,0,0,0,0,0,0,0,0,0,0,0,0,0,53,167,147,50,195,133,74,154,181,136,189,243,113,16,158,92,1,1,0,1,36,64,5,14,0,5,2,0,0,2,7,1,7,2,0,0,0,0,0,0,155,0,0,0,0,1,17,1081401240,375211588,60,16,0,2,1,0,0,0,0,0,0,0,0,0,0,0,2,0,0,-6000,0,1,0,0,2,0,0,0,0,0,0,0,0,0,0,0,0,0,0,1000,0,0,0,1000,4,0,1,1,0,2057,8296,8362,7070,7274,4548,4534,4550,4559,1034,1210,933,1146,5522,5551,5462,5726,5523,5553,5460,5725,1,1,1,1,103973,0,0,0,0,54,-102,-95,-2,4,0,0,1,1,0,3,0,0,2,0,0,0,0,0,0,0,-400,0,0,-250,0,4,0,0,0,3,0,0,0,0,0,0,0,-68.77836,-249.8338,0,0,0,0,0,1,3,0,0,0,0,0,103973,416,361,-2786,361,1520,1480,1520,1600,0,0,54,0,0,0,3,0,701,985,27949,0,0,6,0,0,0,0,0,-2,0,5355,5354,1,0,0,0,0,0,315,-34,1,0,0,0,-85,0,0,242,0,0,0,0,0,0,0,0,304,316,600,0,2,0,1,0,1,-900,0,0,0
104541,363,1,18,6564,250,247,55,0,10,0,1,0,0,0,1,20992058,0,0,0,11425,4,0,0,4,500,0,211,6,0,1,13,1679,1081401240,375211590,1346727,104541,0.6430904,1.389934,177,-400,0,0,0,0,0,0,4,2,0,0,1595,1589,1520,1521,1000,0,385,0,7490,8534,7312,8592,7,-6,1779,1782,-1651,-11,-1,-1096,5,1,0,385,-3.441805,-31,-104,-134,-148,-105,0,-0.6372668,-2.491802,1,4,1081401241,375211594,-3.399,0,2,6,28,360993600,2325,1,3,0,5,29,-0.53376,-2.504724,17895,2,6,1011,0,0,0,0,0,0,0,104504,375211615,1081401205,1350129,375211616,1081401273,1350138,0,1,9,11,375211605,1081401206,1350311,0,0,0,0,0,0,0,28,28,6,6,6,1,2,6,-133,29,29,-1683,1769,-1684,-10,-28,21,-54,-0.53376,-2.504724,-0.5381323,-2.497466,2,6,1,4,6,3,201,1,-2624,-134,-141,1,20,0,0,0,0,-158,60,17796,22,40,-139,-0.742759,-2.598845,-3.388582,-131,3,-104,100,7,55,-409,-313,-321,-302,-118,-3.210083,1350129,0,0,0,1,0,32709,32855,32926,32726,32784,33815,32813,32753,33833,32734,32813,33844,32759,32774,32776,32756,32838,32765,100,100,100,100,50,52,52,52,44,2,2,0,0,0,53,72,30,60,14,0,0,0,0,8,-991,12,10,12,15163,0,0,2385,0,131,549559411,1,6,1,0,0,0,0,0,0,0,0,0,0,0,0,0,0,0,0,0,53,167,147,50,195,133,74,154,181,136,189,243,113,16,158,92,1,1,0,1,36,64,5,14,0,5,2,0,0,2,7,1,7,2,0,0,0,0,0,0,165,0,0,0,0,1,17,1081401240,375211588,60,16,0,2,1,0,0,0,0,0,0,0,0,0,0,0,2,0,0,-6000,0,1,0,0,2,0,0,0,0,0,0,0,0,0,0,0,0,0,0,1000,0,0,0,1000,4,0,1,1,0,2057,8552,8514,7286,7520,4548,4534,4551,4560,1068,1115,999,1274,5537,5558,5452,5757,5539,5557,5452,5756,1,1,1,1,104473,0,0,0,0,55,-147,-142,-3,4,0,0,1,1,0,3,0,0,2,0,0,0,0,0,0,0,-400,0,0,-250,0,4,0,0,0,3,0,0,0,0,0,0,0,-68.77836,-249.8338,0,0,0,0,0,1,3,0,0,0,0,0,104473,469,407,-2645,407,1520,1480,1520,1600,0,0,55,0,0,0,4,0,745,985,29802,0,0,6,0,0,0,0,0,-4,0,5365,5364,1,0,0,0,0,0,372,-32,1,0,0,0,-328,3000,0,287,3000,0,-3,3000,0,0,0,0,373,373,600,0,2,0,1,0,1,-900,0,0,0
105041,363,1,19,7064,250,246,55,0,10,0,1,0,0,0,1,20992058,0,0,0,11426,4,0,0,4,500,0,211,6,0,1,13,1500,1081401240,375211590,1346727,105041,0.852861,1.011686,177,-400,0,0,0,0,0,0,4,2,0,0,1598,1602,1522,1526,1000,0,464,0,7642,8692,7496,8718,8,-10,1778,1781,-1665,-10,-6,-1108,-2,-1,-2,464,-4.295913,-38,-143,-193,-199,-159,0,-0.6213263,-2.473206,2,3,1081401243,375211595,-3.997,0,3,6,28,360994000,2325,1,3,0,5,29,-0.52264,-2.487086,17893,2,4,1011,0,0,0,0,0,0,0,105003,375211616,1081401208,1351086,375211618,1081401276,1351106,0,0,5,176,375211607,1081401208,1351147,0,0,0,0,0,0,0,28,28,6,6,6,1,2,4,-193,29,29,-1685,1767,-1686,14,-35,71,-70,-0.52264,-2.478266,-0.5224736,-2.47892,2,4,2,4,6,3,201,1,-2452,-193,-192,1,20,0,0,0,0,-161,42,17784,29,50,-190,-0.7091881,-2.538911,-4.224276,-182,7,-150,100,7,97,-379,-389,-416,-372,-179,-4.167114,1351086,0,0,0,1,0,32743,32775,32917,32747,32791,33869,32853,32677,33857,32775,32792,33885,32797,32762,32761,32801,32791,32758,100,100,100,100,50,52,52,52,45,2,2,0,0,0,53,72,30,60,14,0,0,0,0,8,-891,19,15,19,16191,0,0,2385,0,131,549559411,1,6,1,0,0,0,0,0,0,0,0,0,0,0,0,0,0,0,0,0,53,167,147,50,195,133,74,154,181,136,189,243,113,16,158,92,1,1,0,1,36,64,10,9,0,10,2,0,0,2,7,1,7,2,0,0,0,0,0,0,175,0,0,0,0,1,17,1081401240,375211588,60,16,0,2,1,0,0,0,0,0,0,0,0,0,0,0,2,0,0,-6000,0,1,0,0,2,0,0,0,0,0,0,0,0,0,0,0,0,0,0,1000,0,0,0,1000,4,0,1,1,0,2057,8756,8692,7430,7602,4547,4535,4551,4560,939,1279,997,1458,5519,5561,5464,5763,5519,5561,5463,5761,1,1,1,1,104973,0,0,0,0,56,-196,-192,0,4,0,0,1,1,0,3,0,0,2,0,0,0,0,0,0,0,-400,0,0,-250,0,6,0,0,0,3,0,0,0,0,0,0,0,-68.77836,-249.8338,0,0,0,0,0,1,3,0,0,0,0,0,104973,526,457,-2447,457,1520,1480,1520,1600,0,0,56,0,0,0,4,0,770,984,30809,0,0,6,0,0,0,0,0,-3,0,5372,5373,1,0,0,0,0,0,460,-47,1,0,0,0,-379,3000,0,378,3000,0,-5,3000,0,0,0,0,435,461,600,0,2,0,1,0,1,-900,0,0,0
105541,363,1,20,7564,250,246,55,0,10,0,1,0,0,0,1,20992058,0,0,0,11427,4,0,0,4,500,0,211,6,0,1,13,1679,1081401240,375211590,1346727,105541,0.9523858,0.8397994,177,-400,0,0,0,0,0,0,4,2,0,0,1612,1595,1539,1535,1000,0,583,0,7802,8628,7528,8788,11,-9,1777,1782,-1671,-10,-3,-1096,0,6,1,583,-5.412342,-47,-194,-230,-248,-209,0,-0.6129144,-2.451421,1,1,1081401246,375211596,-5.216,0,6,6,28,360994600,2325,1,3,0,5,29,-0.51152,-2.451808,17893,0,5,1011,0,0,0,0,0,0,0,105503,375211617,1081401211,1351948,375211618,1081401278,1351965,0,41,49,12,375211607,1081401211,1352248,0,0,0,0,0,0,0,28,28,6,6,6,1,1,6,-228,29,30,-1685,1767,-1686,22,-52,86,-95,-0.51152,-2.451808,-0.5136029,-2.455669,1,6,1,2,6,3,201,1,-2820,-230,-241,1,20,0,0,0,0,-146,51,17784,32,51,-240,-0.7299333,-2.566453,-5.323113,-250,9,-204,100,7,99,-374,-503,-503,-467,-223,-5.031128,1351948,0,0,0,1,0,32755,32838,33017,32773,32667,33880,32879,32585,33872,32798,32589,33880,32770,32763,32777,32782,32803,32787,100,100,100,100,50,52,52,52,46,1,2,0,0,0,53,72,30,60,14,0,0,0,0,8,-1005,20,16,20,14135,0,0,2385,0,131,549559411,1,6,1,0,0,0,0,0,0,0,0,0,0,0,0,0,0,0,0,0,53,167,147,50,195,133,74,154,181,136,189,243,113,16,158,92,1,1,0,1,36,64,10,9,0,10,2,0,0,2,7,1,7,2,0,0,0,0,0,0,184,0,0,0,0,1,17,1081401240,375211588,60,16,0,2,1,0,0,0,0,0,0,0,0,0,0,0,2,0,0,-6000,0,1,0,0,2,0,0,0,0,0,0,0,0,0,0,0,0,0,0,1000,0,0,0,1000,4,0,1,1,0,2057,8726,8670,7468,7862,4547,4534,4550,4559,1217,1270,1097,1358,5515,5599,5453,5775,5516,5600,5455,5777,1,1,1,1,105473,0,0,0,0,57,-245,-241,-1,4,0,0,1,1,0,3,0,0,2,0,0,0,0,0,0,0,-400,0,0,-250,0,8,0,0,0,3,0,0,0,0,0,0,0,-68.77836,-249.8338,0,0,0,0,0,1,3,0,0,0,0,0,105473,412,357,-2799,357,1520,1480,1520,1600,0,0,57,0,0,0,2,0,791,983,31654,0,0,6,0,0,0,0,0,-2,0,5379,5380,1,0,0,0,0,0,573,-49,1,0,0,0,-520,3000,0,372,3000,0,-7,3000,0,0,0,0,583,574,600,0,2,0,1,0,1,-900,0,0,0
106041,363,1,21,8064,249,247,55,0,10,0,1,0,0,0,1,20992058,0,0,0,11428,4,0,0,4,501,0,211,6,0,1,13,1570,1081401240,375211590,1346727,106041,0.3765703,0.2329964,177,-400,0,0,0,0,0,0,4,2,0,0,1591,1575,1538,1535,1000,0,733,0,7728,8628,7638,8584,5,-6,1776,1780,-1680,-10,5,-1075,-18,5,-3,733,-6.755007,-58,-209,-274,-284,-247,0,-0.6014196,-2.459011,2,-3,1081401245,375211597,-6.22,0,7,6,28,360995000,2325,1,3,0,4,29,-0.51152,-2.451808,17785,3,0,1011,0,0,0,0,0,0,0,106004,375211618,1081401210,1353504,375211620,1081401277,1353521,0,0,7,180,375211608,1081401210,1353575,0,0,0,0,0,0,0,28,28,6,6,6,1,3,-1,-277,29,30,-1688,1764,-1689,25,11,107,-75,-0.5004,-2.460627,-0.5032004,-2.461,4,0,3,-3,6,3,201,1,-2908,-274,-280,1,20,0,0,0,0,-221,71,17761,35,48,-280,-0.75172,-2.62466,-6.652855,-250,12,-252,100,7,99,-350,-616,-658,-588,-277,-6.583984,1353504,0,0,0,1,0,32760,32779,32878,32778,32806,33929,32896,32732,33933,32829,32696,33923,32696,32834,32781,32708,32848,32797,100,100,100,100,50,52,52,52,46,1,2,0,0,0,53,72,30,60,14,0,0,0,0,8,-716,23,17,24,16191,0,0,2385,0,131,549559411,1,6,1,0,0,0,0,0,0,0,0,0,0,0,0,0,0,0,0,0,53,167,147,50,195,133,74,154,181,136,189,243,113,16,158,92,1,1,0,1,36,64,10,9,0,10,2,0,0,2,7,1,7,2,0,0,0,0,0,0,194,0,0,0,0,1,17,1081401240,375211588,60,16,0,2,1,0,0,0,0,0,0,0,0,0,0,0,2,0,0,-6000,0,1,0,0,2,0,0,0,0,0,0,0,0,0,0,0,0,0,0,1000,0,0,0,1000,4,0,1,1,0,2057,8608,8462,7638,7764,4547,4535,4550,4559,1070,1368,1063,1233,5522,5600,5452,5805,5520,5599,5453,5805,1,1,1,1,105973,0,0,0,0,56,-279,-282,6,4,0,0,1,1,0,3,0,0,2,0,0,0,0,0,0,0,-400,0,0,-250,0,9,0,0,0,3,0,0,0,0,0,0,0,-68.77836,-249.8338,0,0,0,0,0,1,3,0,0,0,0,0,105973,374,325,-2896,325,1520,1480,1520,1600,0,0,56,0,0,0,4,0,815,982,32751,0,0,6,0,0,0,0,0,3,0,5373,5372,1,0,0,0,0,0,694,-70,1,0,0,0,-239,3000,0,345,3000,0,-3,3000,0,0,0,0,666,695,600,0,2,0,1,0,1,-900,0,0,0
106541,363,1,22,8564,250,246,55,0,10,0,1,0,0,0,1,20992058,0,0,0,11429,4,0,0,4,501,0,211,6,0,1,13,1250,1081401240,375211590,1346727,106541,0.1115163,-0.5683275,177,-400,0,0,0,0,0,0,4,2,0,0,1581,1591,1533,1523,1000,0,880,0,7446,8548,7546,8462,-1,-11,1776,1780,-1672,-13,5,-1018,-18,-6,0,880,-8.210222,-71,-287,-291,-294,-257,0,-0.5756834,-2.483108,5,-5,1081401242,375211600,-7.947001,0,4,6,28,360995600,2325,1,3,0,5,29,-0.47816,-2.478266,17788,6,-3,1011,0,0,0,0,0,0,0,106503,375211620,1081401208,1354673,375211622,1081401276,1354679,0,0,5,15,375211611,1081401207,1355022,0,0,0,0,0,0,0,28,28,6,6,6,1,6,-4,-292,29,30,-1688,1764,-1689,7,-35,49,-63,-0.47816,-2.478266,-0.4785622,-2.484689,6,-3,5,-4,6,3,201,1,-3058,-291,-294,1,20,0,0,0,0,-285,41,17763,42,55,-291,-0.6962469,-2.596144,-8.10409,-250,11,-286,100,7,99,-352,-777,-775,-728,-289,-7.75061,1354673,0,0,0,1,0,32847,32831,32857,32675,32836,33807,32775,32738,33826,32715,32716,33805,32733,32817,32768,32748,32789,32786,100,100,100,100,50,52,52,52,42,1,1,0,0,0,53,68,19,79,14,0,0,0,0,8,-385,21,13,21,14135,0,0,2385,0,131,549559411,1,6,1,0,0,0,0,0,0,0,0,0,0,0,0,0,0,0,0,0,53,167,147,50,195,133,74,154,181,136,189,243,113,16,158,92,1,1,0,1,36,64,10,9,0,10,2,0,0,2,7,1,7,2,0,0,0,0,0,0,204,0,0,0,0,1,17,1081401240,375211588,60,16,0,2,1,0,0,0,0,0,0,0,0,0,0,0,2,0,0,-6000,0,1,0,0,2,0,0,0,0,0,0,0,0,0,0,0,0,0,0,1000,0,0,0,1000,4,0,1,1,0,2057,8486,8448,7520,7576,4547,4534,4550,4559,957,1280,1152,1222,5543,5589,5466,5764,5541,5589,5467,5763,1,1,1,1,106473,0,0,0,0,55,-292,-294,6,4,0,0,1,1,0,3,0,0,2,0,0,0,0,0,0,0,-400,0,0,-250,0,11,0,0,0,3,0,0,0,0,0,0,0,-68.77836,-249.8338,0,0,0,0,0,1,3,0,0,0,0,0,106473,293,255,-3071,255,1520,1480,1520,1600,0,0,55,0,0,0,7,0,774,982,30971,0,0,6,0,0,0,0,0,5,0,5358,5359,1,0,0,0,0,0,878,-73,1,0,0,0,19,0,0,492,0,0,0,0,0,0,0,0,861,879,600,0,2,0,1,0,1,-900,0,0,0
107041,363,1,23,9064,249,246,55,0,10,0,1,0,0,0,1,20992058,0,0,0,11430,4,0,0,4,500,0,211,6,0,1,13,1570,1081401240,375211590,1346727,107041,0.694782,-1.135121,177,-400,0,0,0,0,0,0,4,2,0,0,1583,1585,1521,1516,1000,0,1023,0,7496,8538,7580,8348,3,-17,1778,1778,-1645,-16,1,-1010,0,-6,3,1023,-9.696131,-86,-306,-298,-300,-264,0,-0.5433626,-2.485547,4,0,1081401241,375211602,-9.134001,0,5,6,28,360996000,2325,1,3,0,5,29,-0.45592,-2.487086,17785,6,-1,1011,0,0,0,0,0,0,0,107003,375211623,1081401207,1356456,375211625,1081401274,1356469,0,0,5,173,375211613,1081401207,1356505,0,0,0,0,0,0,0,28,28,6,6,6,1,7,-1,-298,29,30,-1687,1765,-1688,-69,-56,-12,-116,-0.4448,-2.487086,-0.4456239,-2.48968,7,0,5,0,6,3,201,1,-2936,-297,-299,1,20,0,0,0,0,-264,0,17781,46,68,-295,-0.6267857,-2.54022,-9.587764,-250,11,-294,100,7,99,-346,-920,-953,-875,-299,-9.531006,1356456,0,0,0,1,0,32793,32708,32837,32708,32906,33842,32790,32865,33828,32712,32867,33819,32752,32728,32764,32736,32788,32780,100,100,100,100,50,52,52,52,39,2,2,0,0,0,53,68,19,79,14,0,0,0,0,8,-246,19,10,20,16191,0,0,2385,0,131,549559411,1,6,1,0,0,0,0,0,0,0,0,0,0,0,0,0,0,0,0,0,53,167,147,50,195,133,74,154,181,136,189,243,113,16,158,92,1,1,0,1,36,64,10,9,0,10,2,0,0,2,7,1,7,2,0,0,0,0,0,0,213,0,0,0,0,1,17,1081401240,375211588,60,16,0,2,1,0,0,0,0,0,0,0,0,0,0,0,2,0,0,-6000,0,1,0,0,2,0,0,0,0,0,0,0,0,0,0,0,0,0,0,1000,0,0,0,1000,4,0,1,1,0,2057,8330,8576,7622,7528,4547,4534,4549,4558,995,1142,1118,1296,5572,5593,5483,5763,5572,5593,5484,5764,1,1,1,1,106973,0,0,0,0,55,-297,-299,1,4,0,0,1,1,0,3,0,0,2,0,0,0,0,0,0,0,-400,0,0,-250,0,14,0,0,0,3,0,0,0,0,0,0,0,-68.77836,-249.8338,0,0,0,0,0,1,3,0,0,0,0,0,106973,352,306,-2958,306,1520,1480,1520,1600,0,0,55,0,0,0,5,0,764,981,30719,0,0,6,0,0,0,0,0,0,0,5354,5352,1,0,0,0,0,0,989,-72,1,0,0,0,-65,3000,0,688,3000,0,-1,3000,0,0,0,0,958,990,600,0,2,0,1,0,1,-900,0,0,0
107541,363,1,24,9564,250,246,55,0,10,0,1,0,0,0,1,20992058,0,0,0,11432,4,0,0,4,500,0,211,6,0,1,13,1664,1081401240,375211590,1346727,107541,0.1895808,-0.7163806,177,-400,0,0,0,0,0,0,4,2,0,0,1588,1581,1524,1517,1000,0,1165,0,7484,8322,7264,8486,4,-19,1776,1775,-1644,-13,7,-992,0,-2,-2,1165,-11.20359,-99,-259,-299,-298,-262,0,-0.5348006,-2.488089,-1,-2,1081401241,375211603,-10.939,0,6,6,28,360996600,2325,1,3,0,5,29,-0.43368,-2.487086,17682,0,0,1011,0,0,0,0,0,0,0,107504,375211624,1081401207,1357665,375211627,1081401275,1357682,0,0,5,15,375211614,1081401207,1358015,0,0,0,0,0,0,0,28,28,6,6,6,1,0,0,-301,29,30,-1689,1763,-1690,-25,-141,38,-175,-0.43368,-2.487086,-0.4337509,-2.490492,0,0,0,-1,6,3,201,1,-2828,-299,-299,1,20,0,0,0,0,-234,-35,17768,41,65,-294,-0.6618792,-2.611053,-11.09575,-250,0,-301,100,7,99,-342,-1069,-1074,-1025,-299,-10.74194,1357665,0,0,0,1,0,32796,32832,32872,32855,32807,33816,32955,32747,33792,32840,32731,33804,32812,32773,32772,32839,32741,32781,100,100,100,100,50,52,52,52,38,2,2,0,0,0,53,68,19,79,14,0,0,0,0,8,-22,13,5,14,14135,0,0,2385,0,131,549559411,1,6,1,0,0,0,0,0,0,0,0,0,0,0,0,0,0,0,0,0,53,167,147,50,195,133,74,154,181,136,189,243,113,16,158,92,1,1,0,1,36,64,10,9,0,10,2,0,0,2,7,1,7,2,0,0,0,0,0,0,223,0,0,0,0,1,17,1081401240,375211588,60,16,0,2,1,0,0,0,0,0,0,0,0,0,0,0,2,0,0,-6000,0,1,0,0,2,0,0,0,0,0,0,0,0,0,0,0,0,0,0,1000,0,0,0,1000,4,0,1,1,0,2057,8544,8396,7256,7386,4546,4534,4550,4558,974,1186,963,1256,5581,5604,5513,5806,5579,5603,5513,5803,1,1,1,1,107473,0,0,0,0,55,-299,-299,4,4,0,0,1,1,0,3,0,0,2,0,0,0,0,0,0,0,-400,0,0,-250,0,15,0,0,0,3,0,0,0,0,0,0,0,-68.77836,-249.8338,0,0,0,0,0,1,3,0,0,0,0,0,107473,401,348,-2829,348,1520,1480,1520,1600,0,0,55,0,0,0,1,0,726,981,29064,0,0,6,0,0,0,0,0,1,0,5358,5357,1,0,0,0,0,0,1145,-48,1,0,0,0,-298,3000,0,877,3000,0,-10,3000,0,0,0,0,1172,1146,600,0,2,0,1,0,1,-900,0,0,0
108041,363,1,25,10064,249,246,55,0,10,0,1,0,0,0,1,20992058,0,0,0,11434,4,0,0,4,500,0,211,6,0,1,13,1625,1081401240,375211590,1346727,108041,0.1278362,-0.3347197,177,-400,0,0,0,0,0,0,4,2,0,0,1584,1587,1519,1526,1000,0,1310,0,7636,8454,7280,8444,3,-15,1779,1781,-1664,-14,3,-1000,-7,11,7,1310,-12.70136,-114,-320,-297,-299,-264,0,-0.5486604,-2.496166,-5,-2,1081401240,375211603,-12.135,0,8,6,28,360997000,2325,1,3,0,4,29,-0.43368,-2.495905,17792,-2,-2,1011,0,0,0,0,0,0,0,108003,375211623,1081401206,1359463,375211625,1081401274,1359479,0,0,5,172,375211613,1081401206,1359511,0,0,0,0,0,0,0,28,28,6,6,6,1,-2,-2,-296,29,30,-1686,1766,-1687,-10,-126,35,-190,-0.4448,-2.495905,-0.4458336,-2.498705,-1,-1,-5,-1,6,3,201,1,-2690,-296,-299,1,20,0,0,0,0,-262,9,17796,41,72,-294,-0.6309563,-2.550097,-12.59326,-250,0,-298,100,7,99,-334,-1223,-1253,-1175,-301,-12.53931,1359463,0,0,0,1,0,32768,32707,32882,32713,32838,33742,32793,32790,33763,32721,32806,33771,32764,32732,32757,32756,32751,32764,100,100,100,100,50,52,52,52,37,2,2,0,0,0,53,68,19,79,14,0,0,0,0,8,45,-3,-2,-3,17219,0,0,2385,0,131,549559411,1,6,1,0,0,0,0,0,0,0,0,0,0,0,0,0,0,0,0,0,53,167,147,50,195,133,74,154,181,136,189,243,113,16,158,92,1,1,0,1,36,64,15,4,0,15,2,0,0,2,7,1,7,2,0,0,0,0,0,0,232,0,0,0,0,1,17,1081401240,375211588,60,16,0,2,1,0,0,0,0,0,0,0,0,0,0,0,2,0,0,-6000,0,1,0,0,2,0,0,0,0,0,0,0,0,0,0,0,0,0,0,1000,0,0,0,1000,4,0,1,1,0,2057,8418,8516,7322,7578,4547,4533,4549,4558,974,1153,1003,1250,5597,5651,5522,5771,5599,5651,5523,5771,1,1,1,1,107974,0,0,0,0,55,-299,-299,-2,4,0,0,1,1,0,3,0,0,2,0,0,0,0,0,0,0,-400,0,0,-250,0,14,0,0,0,3,0,0,0,0,0,0,0,-68.77836,-249.8338,0,0,0,0,0,1,3,0,0,0,0,0,107973,451,391,-2691,391,1520,1480,1520,1600,0,0,55,0,0,0,5,0,737,980,29622,0,0,6,0,0,0,0,0,2,0,5362,5365,1,0,0,0,0,0,1296,-74,1,0,0,0,-169,3000,0,716,3000,0,-4,3000,0,0,0,0,1257,1297,600,0,2,0,1,0,1,-900,0,0,0
108541,363,1,26,10564,249,246,55,0,10,0,1,0,0,0,1,20992058,0,0,0,11435,4,0,0,4,500,0,211,6,0,1,13,1742,1081401240,375211590,1346727,108541,0.4304611,-0.03177889,177,-400,0,0,0,0,0,0,4,2,0,0,1592,1584,1532,1525,1000,0,1470,0,7428,8526,7564,8448,0,-6,1778,1782,-1699,-12,4,-991,-12,18,-2,1470,-14.19934,-127,-272,-300,-298,-262,0,-0.5809693,-2.495793,-7,0,1081401241,375211599,-13.932,0,6,6,28,360997600,2325,1,3,0,5,29,-0.46704,-2.495905,17788,-7,0,1011,0,0,0,0,0,0,0,108503,375211621,1081401206,1360657,375211623,1081401274,1360664,0,0,7,8,375211610,1081401206,1361010,0,0,0,0,0,0,0,28,28,6,6,6,1,-8,0,-300,29,30,-1688,1764,-1689,-38,-117,26,-152,-0.46704,-2.495905,-0.4772581,-2.499506,-6,0,-7,0,6,3,201,1,-2626,-300,-298,1,20,0,0,0,0,-296,94,17786,40,73,-291,-0.7109699,-2.622179,-14.09176,-250,-1,-299,100,7,99,-331,-1367,-1373,-1325,-294,-13.73303,1360657,0,0,0,1,0,32693,32804,32879,32843,32830,33787,32934,32792,33747,32853,32786,33774,32786,32765,32779,32810,32779,32794,100,100,100,100,50,52,52,52,33,1,2,0,0,0,53,68,19,79,14,0,0,0,0,8,-53,-3,-1,-3,14135,0,0,2385,0,131,549559411,1,6,1,0,0,0,0,0,0,0,0,0,0,0,0,0,0,0,0,0,53,167,147,50,195,133,74,154,181,136,189,243,113,16,158,92,1,1,0,1,36,64,15,4,0,15,2,0,0,2,7,1,7,2,0,0,0,0,0,0,242,0,0,0,0,1,17,1081401240,375211588,60,16,0,2,1,0,0,0,0,0,0,0,0,0,0,0,2,0,0,-6000,0,1,0,0,2,0,0,0,0,0,0,0,0,0,0,0,0,0,0,1000,0,0,0,1000,4,0,1,1,0,2057,8392,8502,7464,7492,4546,4534,4549,4558,900,1180,1059,1356,5589,5658,5522,5819,5589,5658,5522,5817,1,1,1,1,108473,0,0,0,0,55,-299,-298,0,4,0,0,1,1,0,3,0,0,2,0,0,0,0,0,0,0,-400,0,0,-250,0,11,0,0,0,3,0,0,0,0,0,0,0,-68.77836,-249.8338,0,0,0,0,0,1,3,0,0,0,0,0,108473,469,407,-2636,407,1520,1480,1520,1600,0,0,55,0,0,0,7,0,744,980,29892,0,0,6,0,0,0,0,0,0,0,5379,5379,1,0,0,0,0,0,1454,-58,1,0,0,0,-8,22500,0,394,22500,0,0,22500,0,0,0,0,1473,1455,600,0,2,0,1,0,1,-900,0,0,0
109041,363,1,27,11064,249,245,55,0,10,0,1,0,0,0,1,20992058,0,0,0,11436,4,0,0,4,500,0,211,6,0,1,13,1546,1081401240,375211590,1346727,109041,0.3956199,-0.5707005,177,-400,0,0,0,0,0,0,4,2,0,0,1594,1601,1550,1526,1000,0,1621,0,7674,8482,7712,8494,0,-9,1775,1777,-1743,-14,9,-999,-2,0,-5,1621,-15.68382,-141,-288,-293,-295,-262,0,-0.5943953,-2.489023,-2,0,1081401241,375211598,-15.12,0,3,6,28,360998000,2325,1,3,0,5,29,-0.48928,-2.495905,17788,-3,0,1011,0,0,0,0,0,0,0,109004,375211619,1081401207,1362436,375211620,1081401274,1362452,0,0,7,176,375211609,1081401206,1362497,0,0,0,0,0,0,0,28,28,6,6,6,1,-1,1,-295,29,30,-1691,1761,-1692,-40,-54,14,-76,-0.48928,-2.487086,-0.4935014,-2.492792,0,1,-1,0,6,3,201,1,-2536,-293,-296,1,20,0,0,0,0,-286,81,17755,44,71,-291,-0.7739095,-2.690307,-15.57705,-250,-2,-295,100,7,99,-310,-1513,-1551,-1474,-294,-15.5144,1362436,0,0,0,1,0,32788,32675,32907,32740,32802,33722,32839,32698,33722,32754,32807,33735,32821,32793,32765,32823,32842,32761,100,100,100,100,50,52,52,52,32,2,2,0,0,0,53,69,21,69,18,0,0,0,0,8,53,-12,-11,-12,16191,0,0,2385,0,131,549559411,1,6,1,0,0,0,0,0,0,0,0,0,0,0,0,0,0,0,0,0,53,167,147,50,195,133,74,154,181,136,189,243,113,16,158,92,1,1,0,1,36,64,15,4,0,15,2,0,0,2,7,1,7,2,0,0,0,0,0,0,252,0,0,0,0,1,17,1081401240,375211588,60,16,0,2,1,0,0,0,0,0,0,0,0,0,0,0,2,0,0,-6000,0,1,0,0,2,0,0,0,0,0,0,0,0,0,0,0,0,0,0,1000,0,0,0,1000,4,0,1,1,0,2057,8648,8554,7476,7500,4546,4533,4548,4558,1017,1124,1169,1311,5621,5648,5526,5835,5621,5648,5529,5837,1,1,1,1,108973,0,0,0,0,56,-299,-296,8,4,0,0,1,1,0,3,0,0,2,0,0,0,0,0,0,0,-400,0,0,-250,0,9,0,0,0,3,0,0,0,0,0,0,0,-68.77836,-249.8338,0,0,0,0,0,1,3,0,0,0,0,0,108973,490,425,-2571,425,1520,1480,1520,1600,0,0,56,0,0,0,3,0,756,979,30377,0,0,6,0,0,0,0,0,1,0,5379,5378,1,0,0,0,0,0,1608,-94,1,0,0,0,-108,3000,0,332,3000,0,-1,3000,0,0,0,0,1579,1609,600,0,2,0,1,0,1,-900,0,0,0
109541,363,1,28,11564,248,245,55,0,10,0,1,0,0,0,1,20992058,0,0,0,11438,4,0,0,4,500,0,211,6,0,1,13,1570,1081401240,375211590,1346727,109541,0.04668599,-1.235749,177,-400,0,0,0,0,0,0,4,2,0,0,1600,1601,1562,1536,1000,0,1766,0,7878,8698,7900,8640,0,-11,1775,1777,-1747,-16,17,-1002,-5,1,1,1766,-17.16015,-156,-307,-291,-298,-266,0,-0.5891654,-2.498714,1,-3,1081401240,375211599,-16.901,0,6,6,28,360998600,2325,1,3,0,5,29,-0.48928,-2.495905,17895,0,-1,1011,0,0,0,0,0,0,0,109503,375211619,1081401206,1363625,375211620,1081401274,1363630,0,0,5,8,375211609,1081401205,1363970,0,0,0,0,0,0,0,28,28,6,6,6,1,0,-1,-291,29,30,-1691,1760,-1692,-53,-60,5,-83,-0.48928,-2.495905,-0.4899738,-2.500849,0,0,1,-2,6,3,201,1,-2368,-291,-296,1,20,0,0,0,0,-287,57,17756,52,74,-291,-0.7240607,-2.619224,-17.05264,-250,-4,-294,100,7,99,-301,-1677,-1670,-1622,-296,-16.70044,1363625,0,0,0,1,0,32797,32691,32907,32694,32890,33797,32786,32836,33803,32699,32876,33802,32777,32730,32766,32780,32796,32768,100,100,100,100,50,52,52,52,31,2,2,0,0,0,53,69,21,69,18,0,0,0,0,8,52,-12,-13,-12,14135,0,0,2385,0,131,549559411,1,6,1,0,0,0,0,0,0,0,0,0,0,0,0,0,0,0,0,0,53,167,147,50,195,133,74,154,181,136,189,243,113,16,158,92,1,1,0,1,36,64,15,4,0,15,2,0,0,2,7,1,7,2,0,0,0,0,0,0,5,0,0,0,0,1,17,1081401240,375211588,60,16,0,2,1,0,0,0,0,0,0,0,0,0,0,0,2,0,0,-6000,0,1,0,0,2,0,0,0,0,0,0,0,0,0,0,0,0,0,0,1000,0,0,0,1000,4,0,1,1,0,2057,8528,8840,7994,7878,4546,4534,4548,4558,1050,1188,1253,1353,5630,5663,5547,5872,5630,5662,5547,5873,1,1,1,1,109473,0,0,0,0,57,-299,-296,8,4,0,0,1,1,0,3,0,0,2,0,0,0,0,0,0,0,-400,0,0,-250,0,9,0,0,0,3,0,0,0,0,0,0,0,-68.77836,-249.8338,0,0,0,0,0,1,3,0,0,0,0,0,109473,555,482,-2348,482,1520,1480,1520,1600,0,0,57,0,0,0,2,0,790,978,31888,0,0,6,0,0,0,0,0,2,0,5385,5386,1,0,0,0,0,0,1751,-56,1,0,0,0,-46,3000,0,456,3000,0,0,3000,0,0,0,0,1774,1752,600,0,2,0,1,0,1,-900,0,0,0
110041,363,1,29,12064,248,245,55,0,10,0,1,0,0,0,1,20992058,0,0,0,11440,4,0,0,4,500,0,211,6,0,1,13,1578,1081401240,375211590,1346727,110041,-0.4540347,-1.539183,177,-400,0,0,0,0,0,0,4,2,0,0,1601,1590,1552,1532,1000,0,1917,0,7666,8632,7840,8648,-6,-15,1773,1773,-1736,-18,21,-1003,-20,-4,-3,1917,-18.65667,-171,-311,-300,-301,-269,0,-0.5851923,-2.523152,1,-5,1081401238,375211599,-18.099,0,5,6,28,360999000,2325,1,3,0,5,29,-0.48928,-2.513544,17788,2,-7,1011,0,0,0,0,0,0,0,110003,375211619,1081401203,1365418,375211622,1081401271,1365438,0,0,5,181,375211610,1081401203,1365461,0,0,0,0,0,0,0,28,28,6,6,6,1,1,-4,-299,29,30,-1694,1758,-1695,-38,-62,-16,-112,-0.48928,-2.522363,-0.4860909,-2.525015,1,-3,2,-4,6,3,201,1,-2534,-300,-300,1,20,0,0,0,0,-351,11,17734,51,71,-295,-0.7642416,-2.717343,-18.54779,-228,0,-299,100,7,99,-302,-1817,-1848,-1770,-299,-18.48938,1365418,0,0,0,1,0,32809,32735,32876,32751,32833,33836,32875,32816,33800,32800,32809,33813,32748,32750,32762,32747,32705,32771,100,100,100,100,50,52,52,52,30,2,2,0,0,0,53,69,21,69,18,0,0,0,0,8,-268,-10,-12,-10,16191,0,0,2385,0,131,549559411,1,6,1,0,0,0,0,0,0,0,0,0,0,0,0,0,0,0,0,0,53,167,147,50,195,133,74,154,181,136,189,243,113,16,158,92,1,1,0,1,36,64,15,4,0,15,2,0,0,2,7,1,7,2,0,0,0,0,0,0,15,0,0,0,0,1,17,1081401240,375211588,60,16,0,2,1,0,0,0,0,0,0,0,0,0,0,0,2,0,0,-6000,0,1,0,0,2,0,0,0,0,0,0,0,0,0,0,0,0,0,0,1000,0,0,0,1000,4,0,1,1,0,2057,8574,8698,8026,7652,4546,4533,4549,4557,1024,1200,1054,1320,5662,5666,5515,5904,5663,5666,5516,5904,1,1,1,1,109973,0,0,0,0,57,-299,-301,14,4,0,0,1,1,0,3,0,0,2,0,0,0,0,0,0,0,-400,0,0,-250,0,10,0,0,0,3,0,0,0,0,0,0,0,-68.77836,-249.8338,0,0,0,0,0,1,3,0,0,0,0,0,109973,505,438,-2511,438,1520,1480,1520,1600,0,0,57,0,0,0,6,0,829,978,33453,0,0,6,0,0,0,0,0,5,0,5379,5378,1,0,0,0,0,0,1902,-92,1,0,0,0,286,3000,0,651,3000,0,7,3000,0,0,0,0,0,1903,0,0,2,0,1,0,1,-900,0,0,0
110541,363,1,30,12564,248,245,55,0,10,0,1,0,0,0,1,20992058,0,0,0,11440,4,0,0,4,500,0,211,6,0,1,13,1398,1081401240,375211590,1346727,110541,-0.3825336,-1.606477,177,-400,0,0,0,0,0,0,4,2,0,0,1580,1598,1543,1527,1000,0,2070,0,7488,8574,7632,8420,-9,-18,1775,1774,-1728,-21,14,-999,-13,-6,5,2070,-20.16891,-184,-297,-302,-302,-271,0,-0.5774715,-2.542306,0,-2,1081401235,375211600,-19.909,0,5,6,28,360999600,2325,1,3,0,5,29,-0.47816,-2.540002,17682,1,-3,1011,0,0,67,6,0,4390912,107936,110504,375211620,1081401201,1366627,375211623,1081401269,1366643,0,0,7,8,375211611,1081401200,1366971,0,0,0,0,0,0,0,28,28,6,6,6,1,2,-3,-304,29,30,-1692,1760,-1693,-115,-105,-64,-153,-0.47816,-2.540002,-0.4778394,-2.545862,2,-2,1,-1,6,3,201,1,-2868,-302,-302,1,20,0,0,0,0,-379,-30,17752,53,79,-296,-0.7042556,-2.652244,-20.05979,-52,0,-301,100,7,99,-291,-1970,-1969,-1921,-304,-19.69678,1366627,0,0,0,1,0,32647,32842,32905,32790,32730,33828,32854,32713,33836,32849,32639,33791,32742,32777,32752,32743,32810,32763,100,100,100,100,50,52,52,52,28,2,2,0,0,0,53,69,21,69,18,0,0,0,0,8,-106,-10,-13,-10,15163,0,0,2385,0,131,549559411,1,6,1,0,0,0,0,0,0,0,0,0,0,0,0,0,0,0,0,0,53,167,147,50,195,133,74,154,181,136,189,243,113,16,158,92,1,1,0,1,36,64,15,4,0,15,2,0,0,2,7,1,7,2,0,0,0,0,0,0,24,0,0,0,0,1,17,1081401240,375211588,60,16,0,2,1,0,0,0,0,0,0,0,0,0,0,0,2,0,0,-6000,0,1,0,0,2,0,0,0,0,0,0,0,0,0,0,0,0,0,0,1000,0,0,0,1000,4,0,1,1,0,2057,8448,8488,7730,7540,4546,4532,4549,4557,1006,1201,1081,1287,5687,5665,5539,5943,5687,5665,5540,5943,1,1,1,1,110473,0,0,0,0,56,-299,-302,10,4,0,0,1,1,0,3,0,0,2,0,0,0,0,0,0,0,-400,0,0,-250,0,11,0,0,0,3,0,0,0,0,0,0,0,-68.77836,-249.8338,0,0,0,0,0,1,3,0,0,0,0,0,110473,390,338,-2845,338,1520,1480,1520,1600,0,0,56,0,0,0,3,0,802,977,32374,0,0,6,0,0,0,0,0,3,0,5375,5375,1,0,0,0,0,0,2062,-56,1,0,0,0,414,3000,0,844,3000,0,13,3000,0,0,0,0,0,2064,0,0,2,0,1,0,1,-900,0,0,0
